ToiletID,URL,Name,Address1,Town,State,Postcode,Parking,BabyChange,Latitude,Longitude
252,https://toiletmap.gov.au/toilet/252,Lloyd Street,Lloyd Street,Dimboola,Victoria,3414,FALSE,FALSE,-36.45500737,142.0265802
253,https://toiletmap.gov.au/toilet/253,Lloyd Street,Lloyd Street,Dimboola,Victoria,3414,FALSE,FALSE,-36.45412096,142.0263738
254,https://toiletmap.gov.au/toilet/254,Charles Street,Charles Street,Jeparit,Victoria,3423,FALSE,FALSE,-36.14249388,141.9882419
255,https://toiletmap.gov.au/toilet/255,Roy Street,Roy Street,Jeparit,Victoria,3423,FALSE,FALSE,-36.1430491,141.9873694
256,https://toiletmap.gov.au/toilet/256,Western Highway,Western Highway,Nhill,Victoria,3418,FALSE,FALSE,-36.33426504,141.6489602
257,https://toiletmap.gov.au/toilet/257,Western Highway,Western Highway,Nhill,Victoria,3418,FALSE,FALSE,-36.33739237,141.6464373
258,https://toiletmap.gov.au/toilet/258,King Street,King Street,Rainbow,Victoria,3424,FALSE,FALSE,-35.89787629,141.9944402
259,https://toiletmap.gov.au/toilet/259,North Park Club Rooms,Newington Road,Stawell,Victoria,3380,FALSE,FALSE,-37.04931775,142.7746777
260,https://toiletmap.gov.au/toilet/260,North Park - Centre,Ellen Street,Stawell,Victoria,3380,FALSE,FALSE,-37.05056201,142.7746582
261,https://toiletmap.gov.au/toilet/261,Scallan Street Car Park,Scallan Street,Stawell,Victoria,3380,FALSE,TRUE,-37.05464467,142.7812683
262,https://toiletmap.gov.au/toilet/262,Mall Entry,Baylis Street,Stawell,Victoria,3380,FALSE,TRUE,-37.05635123,142.7808849
263,https://toiletmap.gov.au/toilet/263,Cato Park,Florence Street,Stawell,Victoria,3380,FALSE,FALSE,-37.05908112,142.7778681
264,https://toiletmap.gov.au/toilet/264,Stawell Library,Sloane Street,Stawell,Victoria,3380,FALSE,FALSE,-37.05553896,142.7833097
265,https://toiletmap.gov.au/toilet/265,Central Park,Victoria Street,Stawell,Victoria,3380,FALSE,FALSE,-37.05908603,142.7752742
269,https://toiletmap.gov.au/toilet/269,Halls Gap,Grampian Road,Halls Gap,Victoria,3381,FALSE,FALSE,-37.13961377,142.5184646
270,https://toiletmap.gov.au/toilet/270,Great Western,Western Highway,Great Western,Victoria,3377,FALSE,FALSE,-37.15392721,142.8561607
543,https://toiletmap.gov.au/toilet/543,Caramut,Brown Street,Caramut,Victoria,3274,FALSE,FALSE,-37.9577,142.51896
544,https://toiletmap.gov.au/toilet/544,Hawkesdale,Penshurst-Warrnambool Road,Hawkesdale,Victoria,3287,FALSE,TRUE,-38.10455352,142.3218811
546,https://toiletmap.gov.au/toilet/546,Macarthur,Market Street,Macarthur,Victoria,3286,FALSE,FALSE,-38.03330337,142.0009103
547,https://toiletmap.gov.au/toilet/547,Market Square Mortlake,Hamilton Highway,Mortlake,Victoria,3272,TRUE,TRUE,-38.08084541,142.8082657
548,https://toiletmap.gov.au/toilet/548,Mortlake Tea Tree Lake,Jamieson Street,Mortlake,Victoria,3272,TRUE,TRUE,-38.082456,142.808716
549,https://toiletmap.gov.au/toilet/549,Nullawarre,Henrys Sawmill Road,Nullawarre,Victoria,3268,TRUE,TRUE,-38.46761397,142.7457699
550,https://toiletmap.gov.au/toilet/550,Peterborough,Irvine Road,Peterborough,Victoria,3270,TRUE,FALSE,-38.60784359,142.8793376
551,https://toiletmap.gov.au/toilet/551,Ocean Drive Port Fairy,Ocean Drive,Port Fairy,Victoria,3284,TRUE,FALSE,-38.391283,142.230628
552,https://toiletmap.gov.au/toilet/552,King George Square - Bait Shed,Gipps Street,Port Fairy,Victoria,3284,TRUE,TRUE,-38.38783801,142.2405555
553,https://toiletmap.gov.au/toilet/553,Port Fairy East Beach,Beach Street,Port Fairy,Victoria,3284,TRUE,FALSE,-38.37899673,142.2443015
554,https://toiletmap.gov.au/toilet/554,Sackville Street Port Fairy,Sackville Street,Port Fairy,Victoria,3284,TRUE,TRUE,-38.38319265,142.2375584
555,https://toiletmap.gov.au/toilet/555,Rogers Place,Battery Lane,Port Fairy,Victoria,3284,TRUE,TRUE,-38.3864144,142.2425784
556,https://toiletmap.gov.au/toilet/556,Martins Point Port Fairy,Gipps Street,Port Fairy,Victoria,3284,TRUE,FALSE,-38.390564,142.242916
557,https://toiletmap.gov.au/toilet/557,Woorndoo,Mortlake - Ararat Road,Woorndoo,Victoria,3272,FALSE,TRUE,-37.8854973,142.7972213
559,https://toiletmap.gov.au/toilet/559,Hopkins Falls,Hopkins Falls Road,Wangoom,Victoria,3279,TRUE,FALSE,-38.33245299,142.6179075
560,https://toiletmap.gov.au/toilet/560,Yambuk  Riverside Park,Princes Highway,Yambuk,Victoria,3285,TRUE,FALSE,-38.3145612,142.0640778
561,https://toiletmap.gov.au/toilet/561,Sunnyside Park,Olga Avenue,Horsham,Victoria,3400,FALSE,FALSE,-36.71025175,142.2135437
562,https://toiletmap.gov.au/toilet/562,Dudley W Cornell Park,Gertrude Street,Horsham,Victoria,3400,FALSE,FALSE,-36.70306918,142.2025871
563,https://toiletmap.gov.au/toilet/563,May Park,Baillie Street,Horsham,Victoria,3400,TRUE,TRUE,-36.71163573,142.1965016
565,https://toiletmap.gov.au/toilet/565,Bennett Road,Bennett Road,Horsham,Victoria,3400,FALSE,FALSE,-36.71764439,142.1876165
566,https://toiletmap.gov.au/toilet/566,Weir Park,Barnes Boulevarde,Horsham,Victoria,3400,TRUE,FALSE,-36.7300622,142.1758183
567,https://toiletmap.gov.au/toilet/567,Rowing Club,Eastgate Drive,Horsham,Victoria,3400,TRUE,FALSE,-36.72507306,142.1953002
568,https://toiletmap.gov.au/toilet/568,Horsham Sawyer Park,Hocking Street,Horsham,Victoria,3400,FALSE,FALSE,-36.72277882,142.200471
569,https://toiletmap.gov.au/toilet/569,Urban City Oval,Baker Street,Horsham,Victoria,3400,FALSE,FALSE,-36.72081239,142.2004346
571,https://toiletmap.gov.au/toilet/571,Roberts Avenue,Roberts Avenue,Horsham,Victoria,3400,TRUE,FALSE,-36.71414836,142.1999975
572,https://toiletmap.gov.au/toilet/572,Horsham Town Hall,Pynsent Street,Horsham,Victoria,3400,TRUE,FALSE,-36.71582349,142.1983224
573,https://toiletmap.gov.au/toilet/573,Safeway Car Park,Wimmera Highway,Horsham,Victoria,3400,FALSE,FALSE,-36.71629691,142.196793
574,https://toiletmap.gov.au/toilet/574,Botanical Gardens,Baker Street,Horsham,Victoria,3400,FALSE,FALSE,-36.72219622,142.1963926
576,https://toiletmap.gov.au/toilet/576,Green Lake,Western Highway,Bungalally,Victoria,3401,FALSE,FALSE,-36.78727205,142.2988824
577,https://toiletmap.gov.au/toilet/577,Haven,Henty Highway,Haven,Victoria,3401,TRUE,TRUE,-36.75832136,142.1926816
578,https://toiletmap.gov.au/toilet/578,Natimuk,Wimmera Highway,Natimuk,Victoria,3409,FALSE,FALSE,-36.7421966,141.9388681
579,https://toiletmap.gov.au/toilet/579,Jung North Road,Jung North Road,Jung,Victoria,3399,FALSE,FALSE,-36.60715237,142.3605381
761,https://toiletmap.gov.au/toilet/761,Ford Street,Ford Street,Beechworth,Victoria,3747,FALSE,FALSE,-36.35866492,146.6876321
762,https://toiletmap.gov.au/toilet/762,Apex Park,High Street,Rutherglen,Victoria,3685,FALSE,FALSE,-36.05433612,146.4570156
763,https://toiletmap.gov.au/toilet/763,Lake Sambell,McConville Avenue,Beechworth,Victoria,3747,FALSE,FALSE,-36.36029193,146.6935829
764,https://toiletmap.gov.au/toilet/764,Queen Victoria Park, High Street,Beechworth,Victoria,3747,FALSE,FALSE,-36.3563321,146.6922171
765,https://toiletmap.gov.au/toilet/765,Diffey Road,Diffey Road,Beechworth,Victoria,3747,FALSE,FALSE,-36.37004736,146.6764915
766,https://toiletmap.gov.au/toilet/766,High Street,High Street,Yackandandah,Victoria,3749,FALSE,FALSE,-36.312864,146.8385804
767,https://toiletmap.gov.au/toilet/767,Martin Park,Main Street,Chiltern,Victoria,3683,FALSE,FALSE,-36.15168093,146.6096751
768,https://toiletmap.gov.au/toilet/768,Kiewa East Road,Kiewa East Road,Tangambalanga,Victoria,3691,FALSE,FALSE,-36.25187806,147.0293015
769,https://toiletmap.gov.au/toilet/769,Isaacs Avenue,Isaacs Avenue,Yackandandah,Victoria,3749,FALSE,FALSE,-36.31033005,146.8453775
770,https://toiletmap.gov.au/toilet/770,Barnawartha Indigo Creek Park,56 High Street,Barnawartha,Victoria,3688,FALSE,FALSE,-36.10437967,146.6749604
771,https://toiletmap.gov.au/toilet/771,Fig Tree Park,Murray Street,Rutherglen,Victoria,3685,FALSE,FALSE,-36.05530137,146.4601125
772,https://toiletmap.gov.au/toilet/772,Douglas Street,Douglas Street,Rutherglen,Victoria,3685,FALSE,FALSE,-36.05409475,146.462043
773,https://toiletmap.gov.au/toilet/773,Murray Valley Highway,Murray Valley Highway,Huon,Victoria,,FALSE,FALSE,-36.22042863,147.0672613
774,https://toiletmap.gov.au/toilet/774,Kiewa East Road,Kiewa East Road,Kiewa,Victoria,3691,FALSE,FALSE,-36.25681593,147.0121963
775,https://toiletmap.gov.au/toilet/775,Stanely Road,Stanley Road,Stanley,Victoria,3747,FALSE,FALSE,-36.40548483,146.7553102
776,https://toiletmap.gov.au/toilet/776,Gap Flat Road,Gap Flat Road,Allans Flat,Victoria,3691,FALSE,FALSE,-36.27456722,146.9083106
777,https://toiletmap.gov.au/toilet/777,Foord Street,33 Foord Street,Wahgunyah,Victoria,3687,FALSE,FALSE,-36.01073064,146.3934947
778,https://toiletmap.gov.au/toilet/778,Church Street,Church Street,Beechworth,Victoria,3747,FALSE,FALSE,-36.36127926,146.6851788
779,https://toiletmap.gov.au/toilet/779,Lal Lal Falls Reserve,Lal Lal Falls Road,Lal Lal,Victoria,3352,TRUE,FALSE,-37.656552,144.0362075
780,https://toiletmap.gov.au/toilet/780,Gordon Pioneer Reserve,Old Western Highway,Gordon,Victoria,3345,TRUE,FALSE,-37.5784933,144.0998231
781,https://toiletmap.gov.au/toilet/781,Ballan,McLean Reserve,Ballan,Victoria,3342,FALSE,FALSE,-37.600532,144.2257326
782,https://toiletmap.gov.au/toilet/782,Mill Park Reserve,Mill Park Street,Ballan,Victoria,3342,TRUE,FALSE,-37.59727493,144.2296795
783,https://toiletmap.gov.au/toilet/783,Blackwood ,Byers Road,Blackwood,Victoria,3458,FALSE,FALSE,-37.47096132,144.3077361
785,https://toiletmap.gov.au/toilet/785,Riverside Park,Gisborne Road,Bacchus Marsh,Victoria,3340,FALSE,FALSE,-37.65581978,144.4496774
786,https://toiletmap.gov.au/toilet/786,Maddingley Park,Corner Grant & Station Streets,Bacchus Marsh,Victoria,3340,FALSE,FALSE,-37.68475011,144.4348771
787,https://toiletmap.gov.au/toilet/787,Peppertree Park,Werribee Vale Road,Bacchus Marsh,Victoria,3340,FALSE,FALSE,-37.68146316,144.4294591
788,https://toiletmap.gov.au/toilet/788,Bacchus Marsh,Gell Street,Bacchus Marsh,Victoria,3340,TRUE,FALSE,-37.67515203,144.4373499
891,https://toiletmap.gov.au/toilet/891,Mossvale Park,Mossvale Park Road,Berrys Creek,Victoria,3953,FALSE,TRUE,-38.40284392,146.0537068
892,https://toiletmap.gov.au/toilet/892,Dumbalk Hall,Farmers Road,Dumbalk,Victoria,3956,TRUE,FALSE,-38.53331421,146.0942446
893,https://toiletmap.gov.au/toilet/893,Foster Road,Foster Road,Fish Creek,Victoria,3959,TRUE,FALSE,-38.69369825,146.0840727
896,https://toiletmap.gov.au/toilet/896,Showground,Sanders Street,Korumburra,Victoria,3950,FALSE,FALSE,-38.42774574,145.8168559
897,https://toiletmap.gov.au/toilet/897,Coleman Park,Queen Street,Korumburra,Victoria,3950,TRUE,FALSE,-38.43230554,145.8194786
898,https://toiletmap.gov.au/toilet/898,McIndoe Park,Bent Street,Leongatha,Victoria,3953,TRUE,FALSE,-38.47309148,145.9510397
899,https://toiletmap.gov.au/toilet/899,Memorial Hall,Michael Place,Leongatha,Victoria,3953,FALSE,TRUE,-38.47597256,145.9457018
900,https://toiletmap.gov.au/toilet/900,Recreation Reserve,Strzelecki Highway,Leongatha,Victoria,3953,TRUE,FALSE,-38.46851047,145.9496726
902,https://toiletmap.gov.au/toilet/902,Main Street Park,Queen Street,Loch,Victoria,3945,FALSE,FALSE,-38.36844666,145.7059065
903,https://toiletmap.gov.au/toilet/903,Meeniyan Hall,South Gippsland Highway,Meeniyan,Victoria,3956,FALSE,FALSE,-38.57788383,146.0146674
904,https://toiletmap.gov.au/toilet/904,Baromi Park,Ridgeway Street,Mirboo North,Victoria,3871,TRUE,TRUE,-38.39946,146.15662
905,https://toiletmap.gov.au/toilet/905,Bass Valley Camping Ground,Bena-Poowong Road,Poowong,Victoria,3988,FALSE,FALSE,-38.36113695,145.7651305
906,https://toiletmap.gov.au/toilet/906,Recreation Reserve,Drouin-Poowong Road,Poowong,Victoria,3988,FALSE,FALSE,-38.34139384,145.7644362
907,https://toiletmap.gov.au/toilet/907,Foreshore,Lewis Street,Port Welshpool,Victoria,3965,FALSE,FALSE,-38.69976,146.462075
908,https://toiletmap.gov.au/toilet/908,Shallow Inlet,Sandy Point Road,Sandy Point,Victoria,3959,FALSE,FALSE,-38.84156735,146.1520874
909,https://toiletmap.gov.au/toilet/909,Beach Parade,Beach Parade,Sandy Point,Victoria,3959,TRUE,FALSE,-38.8303706,146.1245706
910,https://toiletmap.gov.au/toilet/910,Boat Ramp,Evergreen Road,Tarwin Lower,Victoria,3956,TRUE,FALSE,-38.69565977,145.8640382
911,https://toiletmap.gov.au/toilet/911,River Drive,Evergreen Road,Tarwin Lower,Victoria,3956,TRUE,FALSE,-38.70075574,145.8691322
912,https://toiletmap.gov.au/toilet/912,RV Fisher Park,Tarwin Meadows Road,Tarwin Lower,Victoria,3956,TRUE,FALSE,-38.70299977,145.8681772
913,https://toiletmap.gov.au/toilet/913,Sagassar Park,Victoria Street,Toora,Victoria,3962,FALSE,FALSE,-38.66632738,146.3233565
914,https://toiletmap.gov.au/toilet/914,Cape Liptrap Coastal Park - Venus Bay Beach 1,Surf Drive,Venus Bay,Victoria,3956,FALSE,FALSE,-38.7054,145.8116
915,https://toiletmap.gov.au/toilet/915,Cape Liptrap Coastal Park - Venus Bay Beach 5,NO5 Beach Road,Venus Bay,Victoria,3956,FALSE,FALSE,-38.67736856,145.781057
916,https://toiletmap.gov.au/toilet/916,Jetty & Boat Ramp,Fishermans Road,Venus Bay,Victoria,3956,FALSE,FALSE,-38.67202039,145.7979707
917,https://toiletmap.gov.au/toilet/917,Jupiter Boulevarde Park,167 Jupiter Boulevarde,Venus Bay,Victoria,3956,TRUE,FALSE,-38.70155486,145.8235935
918,https://toiletmap.gov.au/toilet/918,Gale Street,Gale Street,Waratah Bay,Victoria,3959,FALSE,FALSE,-38.81106643,146.0417646
920,https://toiletmap.gov.au/toilet/920,Franklin River Reserve,South Gippsland Highway,Toora,Victoria,3962,FALSE,FALSE,-38.65249456,146.3003866
921,https://toiletmap.gov.au/toilet/921,Yanakie Hall,Millar Road,Yanakie,Victoria,3960,FALSE,FALSE,-38.81138957,146.204851
922,https://toiletmap.gov.au/toilet/922,Boat Ramp,Foley Road,Yanakie,Victoria,3960,FALSE,FALSE,-38.81216186,146.2678451
923,https://toiletmap.gov.au/toilet/923,River Reserve Park,River Street,Port Franklin,Victoria,3964,FALSE,FALSE,-38.68311295,146.2820385
974,https://toiletmap.gov.au/toilet/974,Acacia Car Park,Hume Street,Wodonga,Victoria,3690,TRUE,TRUE,-36.12160363,146.8865515
975,https://toiletmap.gov.au/toilet/975,Hovell Street,Hovell Street,Wodonga,Victoria,3690,FALSE,TRUE,-36.12392585,146.8884427
976,https://toiletmap.gov.au/toilet/976,Sumsion Gardens,Church Street,Wodonga,Victoria,3690,FALSE,TRUE,-36.11251988,146.8916668
977,https://toiletmap.gov.au/toilet/977,Gateway Village,Lincoln Causeway,Gateway Island,Victoria,,TRUE,TRUE,-36.09303653,146.903865
978,https://toiletmap.gov.au/toilet/978,Birallee Park,Emerald Avenue,Wodonga,Victoria,3690,FALSE,FALSE,-36.12614287,146.8584977
980,https://toiletmap.gov.au/toilet/980,Gayview Park,Serpentine Avenue,Wodonga,Victoria,3690,FALSE,FALSE,-36.12320071,146.8578528
982,https://toiletmap.gov.au/toilet/982,Les Stone Park,Parkland Drive,Wodonga,Victoria,3690,TRUE,TRUE,-36.12364388,146.8744979
983,https://toiletmap.gov.au/toilet/983,Martin Park,Gordon St,Wodonga,Victoria,3690,TRUE,TRUE,-36.13513035,146.881793
986,https://toiletmap.gov.au/toilet/986,Willow Park,Off Central Place,Wodonga,Victoria,3690,TRUE,TRUE,-36.13602869,146.8766437
990,https://toiletmap.gov.au/toilet/990,Ebden Reserve,Murray Valley Highway,Bonegilla,Victoria,3691,TRUE,FALSE,-36.1525032,147.0264236
991,https://toiletmap.gov.au/toilet/991,Jacksons Point,Jacksons Point,Bonegilla,Victoria,3691,TRUE,TRUE,-36.12029434,147.0170699
992,https://toiletmap.gov.au/toilet/992,Kookaburra Point,Hume Wier,Bonegilla,Victoria,3691,FALSE,FALSE,-36.1345885,147.0154106
993,https://toiletmap.gov.au/toilet/993,Ludlows Reserve,Murray Valley Highway,Ebden,Victoria,3691,TRUE,TRUE,-36.17071966,147.0347589
1077,https://toiletmap.gov.au/toilet/1077,Wheelahan Gardens,70 Devonshire Road,Sunshine,Victoria,3020,FALSE,FALSE,-37.78563743,144.8372119
1079,https://toiletmap.gov.au/toilet/1079,Green Gully Reserve,McCrae Blvd,Kealba,Victoria,3021,TRUE,FALSE,-37.72715271,144.8193425
1080,https://toiletmap.gov.au/toilet/1080,Sunshine ,Dickson Street,Sunshine,Victoria,3020,TRUE,TRUE,-37.78690522,144.832461
1082,https://toiletmap.gov.au/toilet/1082,Lagoon Reserve,Old Calder Highway,Keilor,Victoria,3036,TRUE,TRUE,-37.7205187,144.8368552
1086,https://toiletmap.gov.au/toilet/1086,Malvern Cricket Ground,High Street,Malvern,Victoria,3144,FALSE,FALSE,-37.85648155,145.0305088
1087,https://toiletmap.gov.au/toilet/1087,Central Park,Burke Road,Malvern East,Victoria,3145,FALSE,FALSE,-37.86601353,145.0496936
1088,https://toiletmap.gov.au/toilet/1088,Victoria Gardens,High Street,Prahran,Victoria,3181,FALSE,FALSE,-37.85177611,145.0008267
1089,https://toiletmap.gov.au/toilet/1089,Malvern Public Gardens,Ascot Street,Malvern,Victoria,3144,FALSE,FALSE,-37.85555642,145.0356166
1090,https://toiletmap.gov.au/toilet/1090,Ardrie Park,Repton Road,Malvern East,Victoria,3145,FALSE,FALSE,-37.87919482,145.0537695
1091,https://toiletmap.gov.au/toilet/1091,Hedgeley Dene,Brunel Street,Malvern East,Victoria,3145,FALSE,FALSE,-37.86915066,145.0540776
1092,https://toiletmap.gov.au/toilet/1092,Princes Gardens,Essex Street,Prahran,Victoria,3181,FALSE,FALSE,-37.84839766,144.9959601
1093,https://toiletmap.gov.au/toilet/1093,Rockley Gardens,Toorak Road,South Yarra,Victoria,3141,FALSE,FALSE,-37.83950896,144.9979307
1094,https://toiletmap.gov.au/toilet/1094,Caroline Gardens,Caroline Street - North,South Yarra,Victoria,3141,FALSE,FALSE,-37.83918732,144.9875541
1095,https://toiletmap.gov.au/toilet/1095,Darling Gardens,Alexandra Avenue,South Yarra,Victoria,3141,FALSE,FALSE,-37.83424017,144.9926217
1096,https://toiletmap.gov.au/toilet/1096,Windsor Siding,Alpha Place,Windsor,Victoria,3181,FALSE,FALSE,-37.85491342,144.9896056
1098,https://toiletmap.gov.au/toilet/1098,Orrong Romanis Park,Sydney Street,Prahran,Victoria,3181,FALSE,FALSE,-37.85129335,145.0109218
1099,https://toiletmap.gov.au/toilet/1099,Toorak Park,Orrong Road,Armadale,Victoria,3143,FALSE,FALSE,-37.85229884,145.0123697
1100,https://toiletmap.gov.au/toilet/1100,Penpraze Park,Victoria Road,Malvern,Victoria,3144,FALSE,FALSE,-37.87092054,145.0377083
1101,https://toiletmap.gov.au/toilet/1101,Treyvaud Memorial Park,Quentin Road,Malvern East,Victoria,3145,FALSE,FALSE,-37.88257302,145.080797
1102,https://toiletmap.gov.au/toilet/1102,TH King Oval,High Street,Glen Iris,Victoria,3146,TRUE,FALSE,-37.86094565,145.0608343
1103,https://toiletmap.gov.au/toilet/1103,Gardiner Park,Tooronga Road,Glen Iris,Victoria,3146,FALSE,FALSE,-37.85175363,145.0494292
1104,https://toiletmap.gov.au/toilet/1104,Sir Zelman Cowan Park,Glenferry Road,Kooyong,Victoria,3144,TRUE,FALSE,-37.83918678,145.0356163
1105,https://toiletmap.gov.au/toilet/1105,Malvern City Square,Stanhope Street,Malvern,Victoria,3144,FALSE,FALSE,-37.85634334,145.0290524
1106,https://toiletmap.gov.au/toilet/1106,Gladstone Gardens,Upton Road,Windsor,Victoria,3181,FALSE,FALSE,-37.85346551,144.9872728
1107,https://toiletmap.gov.au/toilet/1107,Lumley Gardens,Jessamine Avenue,Prahran,Victoria,3181,FALSE,FALSE,-37.85624053,145.0033606
1108,https://toiletmap.gov.au/toilet/1108,Brookville Gardens,Fairbairn Road,Toorak,Victoria,3142,FALSE,FALSE,-37.8455821,145.0091521
1110,https://toiletmap.gov.au/toilet/1110,Como Park,Alexandra Avenue,South Yarra,Victoria,3141,FALSE,FALSE,-37.83568798,145.0029581
1111,https://toiletmap.gov.au/toilet/1111,Llaneast Street,Llaneast Street,Malvern,Victoria,3144,TRUE,FALSE,-37.86110691,145.0275326
1114,https://toiletmap.gov.au/toilet/1114,Prahran Town Hall,Greville Street,Prahran,Victoria,3181,FALSE,FALSE,-37.84964867,144.9936259
1238,https://toiletmap.gov.au/toilet/1238,Burke Street,Burke Street,Bright,Victoria,3741,TRUE,FALSE,-36.72901214,146.960438
1239,https://toiletmap.gov.au/toilet/1239,Centenary Park,Mountbatten Avenue,Bright,Victoria,3741,TRUE,FALSE,-36.72554936,146.9643483
1240,https://toiletmap.gov.au/toilet/1240,Pioneer Park Recreation Reserve,Great Alpine Road,Harrietville,Victoria,3741,TRUE,FALSE,-36.8931465,147.0633825
1241,https://toiletmap.gov.au/toilet/1241,Riverside Park,Great Alpine Road,Porepunkah,Victoria,3740,TRUE,FALSE,-36.69898153,146.9099158
1242,https://toiletmap.gov.au/toilet/1242,Keating Reserve,Great Alpine Road,Harrietville,Victoria,3741,TRUE,FALSE,-36.89502102,147.0621362
1243,https://toiletmap.gov.au/toilet/1243,Tavare Park,Great Alpine Road,Harrietville,Victoria,3741,TRUE,FALSE,-36.89060302,147.064554
1244,https://toiletmap.gov.au/toilet/1244,Jubilee Park,Great Alpine Road,Myrtleford,Victoria,3737,TRUE,FALSE,-36.56216502,146.7255853
1245,https://toiletmap.gov.au/toilet/1245,Cundy Park,O'Donnell Avenue,Myrtleford,Victoria,3737,TRUE,FALSE,-36.55580669,146.7280628
1246,https://toiletmap.gov.au/toilet/1246,Rotary Park,Myrtle Street,Myrtleford,Victoria,3737,TRUE,FALSE,-36.5543143,146.712033
1247,https://toiletmap.gov.au/toilet/1247,Apex Park,Apex Lane,Myrtleford,Victoria,3737,TRUE,FALSE,-36.56801596,146.7148094
1248,https://toiletmap.gov.au/toilet/1248,McNamara Reserve,Lewis Avenue,Myrtleford,Victoria,3737,TRUE,FALSE,-36.56744869,146.7238541
1249,https://toiletmap.gov.au/toilet/1249,Mount Beauty Recreation Reserve,Reserve Drive,Mount Beauty,Victoria,3699,FALSE,FALSE,-36.73913469,147.173197
1250,https://toiletmap.gov.au/toilet/1250,Hollonds Street,Hollonds Street,Mount Beauty,Victoria,3699,TRUE,FALSE,-36.74313478,147.1706598
1251,https://toiletmap.gov.au/toilet/1251,Big Hill Mountain Bike Park,Upper Kiewa Valley Road,Mount Beauty,Victoria,3699,TRUE,FALSE,-36.74322429,147.1745702
1252,https://toiletmap.gov.au/toilet/1252,Mount Beauty Airstrip,Mount Beauty Airstrip,Mount Beauty,Victoria,3699,TRUE,FALSE,-36.73331374,147.1703313
1253,https://toiletmap.gov.au/toilet/1253,Tawonga Tennis Courts,Kiewa Valley Highway,Tawonga,Victoria,3697,TRUE,FALSE,-36.6874297,147.1409057
1334,https://toiletmap.gov.au/toilet/1334,Packer Park,147 Leila Road,Carnegie,Victoria,3163,TRUE,FALSE,-37.90226422,145.0602764
1335,https://toiletmap.gov.au/toilet/1335,Lord Reserve,Munro Avenue,Carnegie,Victoria,3163,TRUE,FALSE,-37.89378073,145.049237
1337,https://toiletmap.gov.au/toilet/1337,Princes Park 2,Dover Street,Caulfield South,Victoria,3162,TRUE,FALSE,-37.89430461,145.026176
1338,https://toiletmap.gov.au/toilet/1338,Princes Park 1,2 Maple Street,Caulfield South,Victoria,3162,TRUE,FALSE,-37.89357644,145.0230019
1340,https://toiletmap.gov.au/toilet/1340,Koornang Reserve,84 Lyons Street,Carnegie,Victoria,3163,TRUE,FALSE,-37.89544505,145.0551368
1341,https://toiletmap.gov.au/toilet/1341,Duncan McKinnon Reserve,271 Murrumbeena Road,Murrumbeena,Victoria,3163,FALSE,FALSE,-37.90449252,145.0629068
1342,https://toiletmap.gov.au/toilet/1342,Victory Park,Patterson Road,Bentleigh,Victoria,3204,TRUE,TRUE,-37.92444023,145.0305039
1343,https://toiletmap.gov.au/toilet/1343,Centenary Park (Brady Road end),Brady Road,Bentleigh East,Victoria,3165,TRUE,TRUE,-37.92551609,145.0677897
1344,https://toiletmap.gov.au/toilet/1344,Bailey Reserve,East Boundary Road,Bentleigh East,Victoria,3165,TRUE,FALSE,-37.9169608,145.0612157
1345,https://toiletmap.gov.au/toilet/1345,Mackie Road Reserve,Mackie Road,Bentleigh East,Victoria,3165,TRUE,FALSE,-37.91757835,145.0753651
1346,https://toiletmap.gov.au/toilet/1346,Halley Park,Mortimore Street,Bentleigh,Victoria,3204,FALSE,FALSE,-37.92788159,145.0390632
1347,https://toiletmap.gov.au/toilet/1347,King George VI Memorial Reserve,East Boundary Road,Bentleigh East,Victoria,3165,TRUE,FALSE,-37.92879759,145.0597173
1348,https://toiletmap.gov.au/toilet/1348,McKinnon Reserve,Tucker Road,McKinnon,Victoria,3204,TRUE,FALSE,-37.91464294,145.0501556
1349,https://toiletmap.gov.au/toilet/1349,Bentleigh Reserve,Arthur Street,Bentleigh,Victoria,3204,TRUE,FALSE,-37.92243379,145.0432378
1351,https://toiletmap.gov.au/toilet/1351,East Caulfield Reserve,Dudley Street,Caulfield East,Victoria,3145,TRUE,FALSE,-37.88003861,145.0470076
1353,https://toiletmap.gov.au/toilet/1353,Hopetoun Gardens,Victoria Street Side,Elsternwick,Victoria,3185,FALSE,FALSE,-37.8869141,145.0102609
1358,https://toiletmap.gov.au/toilet/1358,Wattle Grove Reserve,Wattle Grove,McKinnon,Victoria,3204,FALSE,FALSE,-37.9084998,145.0352628
1360,https://toiletmap.gov.au/toilet/1360,Allnut Park,Wheatley Road,McKinnon,Victoria,3204,TRUE,FALSE,-37.91417608,145.0319974
1361,https://toiletmap.gov.au/toilet/1361,Joyce Park,Tyrone Street,Ormond,Victoria,3204,TRUE,FALSE,-37.90728823,145.046038
1362,https://toiletmap.gov.au/toilet/1362,Marlborough Street Reserve,Marlborough Street,Bentleigh East,Victoria,3165,TRUE,FALSE,-37.9113456,145.0676396
1411,https://toiletmap.gov.au/toilet/1411,Glendenning Street,Glendinning Street,Balmoral,Victoria,3407,TRUE,FALSE,-37.24884494,141.8418725
1412,https://toiletmap.gov.au/toilet/1412,Pedrina Park-Football Oval,North Boundary Road,Hamilton,Victoria,3300,TRUE,FALSE,-37.7249385,142.0285515
1413,https://toiletmap.gov.au/toilet/1413,Byaduk Mechanics Hall,8 Byaduk-Penshurst Road,Byaduk,Victoria,3301,TRUE,FALSE,-37.95199838,141.9560626
1414,https://toiletmap.gov.au/toilet/1414,Barker Street,Barker Street,Cavendish,Victoria,3314,TRUE,TRUE,-37.52834384,142.0397086
1415,https://toiletmap.gov.au/toilet/1415,Whyte Street / Glenelg Highway,Glenelg Highway,Coleraine,Victoria,3315,TRUE,TRUE,-37.59850711,141.6917682
1417,https://toiletmap.gov.au/toilet/1417,Dunkeld Memorial Park,Glenelg Highway,Dunkeld,Victoria,3294,TRUE,FALSE,-37.64991259,142.3427645
1418,https://toiletmap.gov.au/toilet/1418,Tourist Information Centre,Glenelg Highway,Dunkeld,Victoria,3294,TRUE,TRUE,-37.64939345,142.3431303
1419,https://toiletmap.gov.au/toilet/1419,Lions Club Park,Glenelg Highway,Glenthompson,Victoria,3293,TRUE,FALSE,-37.63645481,142.5482467
1420,https://toiletmap.gov.au/toilet/1420,Glenthompson - Road Reserve,Glenelg Highway,Glenthompson,Victoria,3293,TRUE,FALSE,-37.63717,142.54599
1421,https://toiletmap.gov.au/toilet/1421,Watton Street,Watton Street,Penshurst,Victoria,3289,TRUE,FALSE,-37.87615908,142.2899147
1422,https://toiletmap.gov.au/toilet/1422,Penshurst Park,Hamilton Highway,Penshurst,Victoria,3289,TRUE,FALSE,-37.8727172,142.2911622
1423,https://toiletmap.gov.au/toilet/1423,Lake Hamilton - Boat Ramp,Strathkellar Road,Hamilton,Victoria,3300,TRUE,FALSE,-37.73301263,142.039729
1424,https://toiletmap.gov.au/toilet/1424,Tarrington Oval,Hamilton Highway,Tarrington,Victoria,3301,TRUE,FALSE,-37.7667434,142.0982639
1425,https://toiletmap.gov.au/toilet/1425,Mitchell Square,Lonsdale Street,Hamilton,Victoria,3300,TRUE,TRUE,-37.7425045,142.0234235
1427,https://toiletmap.gov.au/toilet/1427,Lonsdale Street,"Glenelg Highway, Melville Oval",Hamilton,Victoria,3300,TRUE,FALSE,-37.74133617,142.0231087
1428,https://toiletmap.gov.au/toilet/1428,Ansett Museum (Outside),Riley Street,Hamilton,Victoria,3300,TRUE,FALSE,-37.74174224,142.0353534
1432,https://toiletmap.gov.au/toilet/1432,Pedrina Park-Netball Courts,North Boundary Road,Hamilton,Victoria,3300,TRUE,FALSE,-37.7259565,142.0299875
1433,https://toiletmap.gov.au/toilet/1433,Nigretta Falls Reserve,Wannon - Nigretta Falls Road,Bochara,Victoria,3301,TRUE,FALSE,-37.65625948,141.9254571
1434,https://toiletmap.gov.au/toilet/1434,Wannon Falls Reserve,Glenelg Highway,Wannon,Victoria,,TRUE,FALSE,-37.67515782,141.8419601
1436,https://toiletmap.gov.au/toilet/1436,Mitchell Park,Mt Napier Road,Hamilton,Victoria,3300,TRUE,FALSE,-37.7541573,142.0323962
1437,https://toiletmap.gov.au/toilet/1437,Botanic Gardens,Thompson Street,Hamilton,Victoria,3300,TRUE,FALSE,-37.74603237,142.0245312
1479,https://toiletmap.gov.au/toilet/1479,Godfrey Street (Nolans Park),Godfrey Street,Boort,Victoria,3537,TRUE,TRUE,-36.11678455,143.7286214
1483,https://toiletmap.gov.au/toilet/1483,Grant Street North,Grant Street,Inglewood,Victoria,3517,TRUE,FALSE,-36.56881944,143.8652614
1485,https://toiletmap.gov.au/toilet/1485,Boort-Wedderburn Road (Allen Street),Boort-Wedderburn Road,Korong Vale,Victoria,3520,TRUE,FALSE,-36.35575885,143.7063562
1486,https://toiletmap.gov.au/toilet/1486,Glossop Street,Glossop Street,Mitiamo,Victoria,3573,TRUE,FALSE,-36.21109125,144.2330579
1487,https://toiletmap.gov.au/toilet/1487,Newbridge,Wimmera Highway/Burke St,Newbridge,Victoria,3551,TRUE,TRUE,-36.74065943,143.9000769
1488,https://toiletmap.gov.au/toilet/1488,Kelly Street,Kelly Street,Pyramid Hill,Victoria,3575,TRUE,TRUE,-36.05415775,144.1151925
1489,https://toiletmap.gov.au/toilet/1489,Rudkins Reserve,Peppercorn Way,Serpentine,Victoria,3517,TRUE,FALSE,-36.41009788,143.9737792
1490,https://toiletmap.gov.au/toilet/1490,Bridgewater Dunolly Road (Commercial Road),Bridgwater Dunolly Road (Commercial Road),Tarnagulla,Victoria,3551,TRUE,FALSE,-36.77021688,143.8328117
1491,https://toiletmap.gov.au/toilet/1491,Jacka Park Wedderburn,Chapel Street,Wedderburn,Victoria,3518,TRUE,TRUE,-36.41791649,143.6134744
1696,https://toiletmap.gov.au/toilet/1696,Deakin Avenue,Sturt Highway,Mildura,Victoria,3500,FALSE,FALSE,-34.18464622,142.163184
1697,https://toiletmap.gov.au/toilet/1697,Kmart,Eighth Street,Mildura,Victoria,3500,FALSE,FALSE,-34.182792,142.1601977
1700,https://toiletmap.gov.au/toilet/1700,Safeway,Lime Avenue,Mildura,Victoria,3500,FALSE,FALSE,-34.1860516,142.1574457
1702,https://toiletmap.gov.au/toilet/1702,Ornamental Lakes,Hugh King Drive,Mildura,Victoria,3500,FALSE,FALSE,-34.18484135,142.1679659
1703,https://toiletmap.gov.au/toilet/1703,Mildura Rowing Club,Hugh King Drive,Mildura,Victoria,3500,FALSE,FALSE,-34.18279195,142.1653505
1704,https://toiletmap.gov.au/toilet/1704,Jaycee Park,Hugh King Drive,Mildura,Victoria,3500,FALSE,FALSE,-34.18000085,142.1635352
1705,https://toiletmap.gov.au/toilet/1705,Mildura Arts Centre,199 Cureton Avenue,Mildura,Victoria,3500,TRUE,TRUE,-34.17733226,142.1585777
1706,https://toiletmap.gov.au/toilet/1706,Lock 11,Hugh King Drive,Mildura,Victoria,3500,FALSE,FALSE,-34.17500419,142.1594169
1707,https://toiletmap.gov.au/toilet/1707,Mansell Reserve,Seventh Street,Mildura,Victoria,3500,FALSE,FALSE,-34.17703415,142.1552791
1708,https://toiletmap.gov.au/toilet/1708,Old Mildura Station Homestead,278 Cureton Avenue,Mildura,Victoria,3500,FALSE,FALSE,-34.169751,142.1592643
1709,https://toiletmap.gov.au/toilet/1709,Apex Park Beach,Cureton Avenue,Mildura,Victoria,3500,FALSE,FALSE,-34.15219973,142.1633448
1711,https://toiletmap.gov.au/toilet/1711,SC Mills Park,Sandpiper Drive,Mildura,Victoria,3500,FALSE,FALSE,-34.19199713,142.1463001
1712,https://toiletmap.gov.au/toilet/1712,Henderson Park,Thirteenth Street,Mildura,Victoria,3500,FALSE,FALSE,-34.19170815,142.1531977
1713,https://toiletmap.gov.au/toilet/1713,The Alfred Deakin Centre,Deakin Avenue & Twelfth Street,Mildura,Victoria,3500,FALSE,FALSE,-34.19134108,142.1561381
1714,https://toiletmap.gov.au/toilet/1714,Mildura Recreation Reserve,Eleventh Street,Mildura,Victoria,3500,FALSE,FALSE,-34.19571313,142.162423
1715,https://toiletmap.gov.au/toilet/1715,Aero Ovals 1,Ranfurly Way,Mildura,Victoria,3500,FALSE,FALSE,-34.17498769,142.1395467
1716,https://toiletmap.gov.au/toilet/1716,Aero Ovals 2,Ranfurly Way,Mildura,Victoria,3500,FALSE,FALSE,-34.17173751,142.1351409
1717,https://toiletmap.gov.au/toilet/1717,Aero Ovals 3,Ranfurly Way,Mildura,Victoria,3500,FALSE,FALSE,-34.17058188,142.1343825
1718,https://toiletmap.gov.au/toilet/1718,Aero Ovals Soccer,Flora Avenue,Mildura,Victoria,3500,FALSE,FALSE,-34.1719181,142.1325768
1720,https://toiletmap.gov.au/toilet/1720,Henshilwood Reserve Council Depot,Armagh Crescent,Irymple,Victoria,3498,FALSE,FALSE,-34.23332038,142.1668452
1721,https://toiletmap.gov.au/toilet/1721,Henshilwood Reserve Tennis Courts,Karadoc Avenue,Irymple,Victoria,3498,FALSE,FALSE,-34.23435433,142.1651005
1722,https://toiletmap.gov.au/toilet/1722,15th Street Adjoining Bus Shelter,Calder Highway,Irymple,Victoria,3498,FALSE,FALSE,-34.23600209,142.1710132
1723,https://toiletmap.gov.au/toilet/1723,Lions Park,Hassell Court,Irymple,Victoria,3498,FALSE,FALSE,-34.23406343,142.1749226
1724,https://toiletmap.gov.au/toilet/1724,Nichols Point Recreation Reserve,Koorlong Avenue,Nichols Point,Victoria,3501,FALSE,FALSE,-34.21020142,142.2033944
1725,https://toiletmap.gov.au/toilet/1725,Kenny Park 2,Smith Street,Merbein,Victoria,3505,FALSE,FALSE,-34.16530898,142.055938
1726,https://toiletmap.gov.au/toilet/1726,Kenny Park 3,Calder Highway,Merbein,Victoria,3505,FALSE,FALSE,-34.16379043,142.0531271
1727,https://toiletmap.gov.au/toilet/1727,Kenny Park 1,Box Street,Merbein,Victoria,3505,FALSE,FALSE,-34.16579367,142.0532887
1728,https://toiletmap.gov.au/toilet/1728,Apex Civic Park community centre,Calder Highway,Merbein,Victoria,3505,FALSE,FALSE,-34.16757068,142.058329
1730,https://toiletmap.gov.au/toilet/1730,Chaffey Park,River Avenue,Merbein,Victoria,3505,FALSE,FALSE,-34.17063993,142.0789103
1731,https://toiletmap.gov.au/toilet/1731,Barclay Square,Ilex Street,Cardross,Victoria,3496,FALSE,FALSE,-34.30742403,142.1876714
1732,https://toiletmap.gov.au/toilet/1732,Croquet Courts - Quandong Park,Calder Highway,Irymple,Victoria,3498,FALSE,FALSE,-34.29992804,142.1889314
1733,https://toiletmap.gov.au/toilet/1733,Quandong Park,Calder Highway,Irymple,Victoria,3498,FALSE,FALSE,-34.2995403,142.189836
1734,https://toiletmap.gov.au/toilet/1734,Number 3 & 4 Ovals,Calder Highway,Irymple,Victoria,3498,FALSE,FALSE,-34.29996033,142.1909023
1735,https://toiletmap.gov.au/toilet/1735,Nangiloc Reserve,Red Cliffs - Coolignan Road,Nangiloc,Victoria,3494,FALSE,FALSE,-34.47902301,142.3623082
1736,https://toiletmap.gov.au/toilet/1736,Ouyen Comfort Station,Off Mallee Highway,Ouyen,Victoria,3490,FALSE,FALSE,-35.07219375,142.3164608
1737,https://toiletmap.gov.au/toilet/1737,Ouyen Council Office,Oke Street,Ouyen,Victoria,3490,FALSE,FALSE,-35.06938278,142.3151361
1738,https://toiletmap.gov.au/toilet/1738,Blackburn Park,Gregory Street,Ouyen,Victoria,3490,FALSE,FALSE,-35.07267838,142.3193041
1739,https://toiletmap.gov.au/toilet/1739,Walpeup Hall,Richardson Street,Walpeup,Victoria,3507,FALSE,FALSE,-35.1378612,142.0232208
1740,https://toiletmap.gov.au/toilet/1740,Walpeup Wayside Stop,Off Mallee Highway,Walpeup,Victoria,3507,FALSE,FALSE,-35.13631029,142.0253532
1741,https://toiletmap.gov.au/toilet/1741,Murrayville Hall,Gray Street,Murrayville,Victoria,3512,FALSE,FALSE,-35.26327422,141.1835166
1742,https://toiletmap.gov.au/toilet/1742,Murrayville Lions Park,Mallee Highway,Murrayville,Victoria,3512,FALSE,FALSE,-35.2609156,141.1809964
1743,https://toiletmap.gov.au/toilet/1743,Mallee Highway,Mallee Highway,Underbool,Victoria,3509,FALSE,FALSE,-35.16958855,141.8094502
1744,https://toiletmap.gov.au/toilet/1744,Underbool Recreation Reserve,Gnarr Road,Underbool,Victoria,3509,FALSE,FALSE,-35.16810222,141.8144905
1745,https://toiletmap.gov.au/toilet/1745,Cowangie Hall,Dayman St,Cowangie,Victoria,3506,FALSE,FALSE,-35.2340634,141.3816241
1746,https://toiletmap.gov.au/toilet/1746,Torrita,Mallee Highway,Torrita,Victoria,3490,FALSE,FALSE,-35.15447179,141.9349119
1747,https://toiletmap.gov.au/toilet/1747,Lake Cullulleraine Recreation Reserve 2,Sturt Highway,Cullulleraine,Victoria,3496,FALSE,FALSE,-34.27655734,141.6005052
1748,https://toiletmap.gov.au/toilet/1748,Lake Cullulleraine Recreation Reserve 3,Sturt Highway,Cullulleraine,Victoria,3496,FALSE,FALSE,-34.27518278,141.6031451
1749,https://toiletmap.gov.au/toilet/1749,Lake Cullulleraine Recreation Reserve 1,Sturt Highway,Cullulleraine,Victoria,3496,FALSE,FALSE,-34.27677546,141.6055668
1750,https://toiletmap.gov.au/toilet/1750,Meringur Hall,Taggert Road,Meringur,Victoria,3496,FALSE,FALSE,-34.38890718,141.3357081
1845,https://toiletmap.gov.au/toilet/1845,Alexandra Gardens,Girdlestone Street,Ararat,Victoria,3377,FALSE,TRUE,-37.28032451,142.9290334
1846,https://toiletmap.gov.au/toilet/1846,Alexandra Oval,Western Highway,Ararat,Victoria,3377,FALSE,FALSE,-37.27905057,142.9263151
1847,https://toiletmap.gov.au/toilet/1847,Greenhill Lake,Western Highway,Ararat,Victoria,3377,FALSE,FALSE,-37.29635401,142.9822055
1848,https://toiletmap.gov.au/toilet/1848,Western Highway,High Street,Ararat,Victoria,3377,TRUE,TRUE,-37.28274323,142.9319586
1849,https://toiletmap.gov.au/toilet/1849,Visitor Information Centre,King Street,Ararat,Victoria,3377,FALSE,FALSE,-37.28265932,142.9368023
1851,https://toiletmap.gov.au/toilet/1851,Lake Bolac,Glenelg Highway,Lake Bolac,Victoria,3351,FALSE,FALSE,-37.71158894,142.8406073
1852,https://toiletmap.gov.au/toilet/1852,Lake Bolac Foreshore,Frontage Road,Lake Bolac,Victoria,3351,FALSE,FALSE,-37.72165534,142.8403289
1853,https://toiletmap.gov.au/toilet/1853,Moyston Recreation Reserve,Moyston-Great Western Road,Moyston,Victoria,3377,FALSE,FALSE,-37.2985901,142.7652577
1854,https://toiletmap.gov.au/toilet/1854,Pomonal Recreation Reserve,Moyston-Pomonol Road,Pomonal,Victoria,3381,TRUE,TRUE,-37.1955884,142.6095025
1855,https://toiletmap.gov.au/toilet/1855,Streatham,Glenelg Highway,Streatham,Victoria,3351,FALSE,FALSE,-37.67920197,143.0633718
1856,https://toiletmap.gov.au/toilet/1856,Willaura Recreation Reserve,Hospital Road,Willaura,Victoria,3379,FALSE,FALSE,-37.54594346,142.7450899
1857,https://toiletmap.gov.au/toilet/1857,A B Wood Reserve,Plantation Road,Lovely Banks,Victoria,3221,TRUE,TRUE,-38.05679844,144.3132298
1858,https://toiletmap.gov.au/toilet/1858,Anakie Reserve,De Motts Road,Anakie,Victoria,3221,TRUE,FALSE,-37.91606637,144.2517232
1859,https://toiletmap.gov.au/toilet/1859,Austin Park,Station Lake Road,Lara,Victoria,3212,FALSE,FALSE,-38.02240021,144.4112812
1860,https://toiletmap.gov.au/toilet/1860,Avalon Beach,Avalon Road,Avalon,Victoria,3212,TRUE,FALSE,-38.08459533,144.4254717
1861,https://toiletmap.gov.au/toilet/1861,Balyang Sanctuary,Marnock Road,Newtown,Victoria,3220,FALSE,FALSE,-38.16510027,144.3319406
1862,https://toiletmap.gov.au/toilet/1862,Bakers Oval,Napier Street,Geelong West,Victoria,3218,TRUE,FALSE,-38.13572594,144.3379469
1863,https://toiletmap.gov.au/toilet/1863,Bancoora Beach,Surf Club Lane,Breamlea,Victoria,3227,FALSE,FALSE,-38.29203679,144.4033544
1864,https://toiletmap.gov.au/toilet/1864,Barwon Heads Village Park,Sheepwash Road,Barwon Heads,Victoria,3227,TRUE,FALSE,-38.27220351,144.4893724
1865,https://toiletmap.gov.au/toilet/1865,Barwon Valley Park - East,Barrabool Road,Belmont,Victoria,3216,FALSE,FALSE,-38.16556929,144.3437859
1866,https://toiletmap.gov.au/toilet/1866,Barwon Valley Park - West,Barrabool Road,Belmont,Victoria,3216,TRUE,FALSE,-38.16550471,144.3365746
1867,https://toiletmap.gov.au/toilet/1867,Barwon Water,Off Barrabool Rd,South Geelong,Victoria,3220,FALSE,FALSE,-38.16530792,144.3515017
1870,https://toiletmap.gov.au/toilet/1870,Belmont Common Baseball Field,Barwon Heads Road,Belmont,Victoria,3216,FALSE,FALSE,-38.16785626,144.3557075
1871,https://toiletmap.gov.au/toilet/1871,Barwon Valley Public Golf Course,Barwon Heads Road,Belmont,Victoria,3216,FALSE,FALSE,-38.17487351,144.3557496
1872,https://toiletmap.gov.au/toilet/1872,Belmont Library,Roslyn Road,Belmont,Victoria,3216,FALSE,FALSE,-38.17506086,144.3433403
1873,https://toiletmap.gov.au/toilet/1873,Botanical Gardens,Eastern Park Cicuit,East Geelong,Victoria,3219,TRUE,FALSE,-38.14837577,144.3781435
1874,https://toiletmap.gov.au/toilet/1874,Breakwater Reserve,Currier Street,Breakwater,Victoria,3219,TRUE,FALSE,-38.18262849,144.3697475
1875,https://toiletmap.gov.au/toilet/1875,Collendina Foreshore,Ocean Trwy,Ocean Grove,Victoria,3226,TRUE,FALSE,-38.27127019,144.5464616
1876,https://toiletmap.gov.au/toilet/1876,Burdoo Reserve,Wingarra Drive,Grovedale,Victoria,3216,FALSE,FALSE,-38.21146073,144.3276764
1877,https://toiletmap.gov.au/toilet/1877,Cahir Reserve,Horwood Drive,Breamlea,Victoria,3227,FALSE,FALSE,-38.29400105,144.3907189
1878,https://toiletmap.gov.au/toilet/1878,Collendina Park,Minerva Close,Ocean Grove,Victoria,3226,TRUE,FALSE,-38.26823677,144.5482449
1880,https://toiletmap.gov.au/toilet/1880,Coolabah Park,Coolabah Drive,Grovedale,Victoria,3216,FALSE,FALSE,-38.20669347,144.321788
1882,https://toiletmap.gov.au/toilet/1882,Corio Athletics Track,Delaware Street,Norlane,Victoria,3214,FALSE,FALSE,-38.07931747,144.3540437
1883,https://toiletmap.gov.au/toilet/1883,Cunningham Pier,Western Beach,Geelong,Victoria,3220,FALSE,FALSE,-38.1429259,144.3615251
1884,https://toiletmap.gov.au/toilet/1884,Park,Detroit Crescent,Corio,Victoria,3214,FALSE,FALSE,-38.07757747,144.3627565
1885,https://toiletmap.gov.au/toilet/1885,Drewin Park,Wandana Drive,Wandana Heights,Victoria,3216,FALSE,FALSE,-38.17353598,144.2998305
1886,https://toiletmap.gov.au/toilet/1886,Drysdale Pony Club,Gillies Road,Drysdale,Victoria,3222,FALSE,FALSE,-38.18344148,144.5610584
1887,https://toiletmap.gov.au/toilet/1887,Drysdale Reserve,Reserve Road,Drysdale,Victoria,3222,FALSE,FALSE,-38.17447045,144.5618258
1888,https://toiletmap.gov.au/toilet/1888,Drysdale Station,Station Street,Drysdale,Victoria,3222,FALSE,FALSE,-38.17998303,144.5579845
1889,https://toiletmap.gov.au/toilet/1889,Eastern Beach,Hearne Parade,Geelong,Victoria,3220,FALSE,FALSE,-38.14725798,144.373783
1890,https://toiletmap.gov.au/toilet/1890,Eastern Park 1,Eastern Park Circuit,East Geelong,Victoria,3219,FALSE,FALSE,-38.14831196,144.3781484
1891,https://toiletmap.gov.au/toilet/1891,Eastern Park 2,Holt Road,East Geelong,Victoria,3219,TRUE,FALSE,-38.15351315,144.3778545
1892,https://toiletmap.gov.au/toilet/1892,Elcho Equestrian Club 1,Elcho Road,Lara,Victoria,3212,TRUE,FALSE,-38.02897513,144.3577254
1893,https://toiletmap.gov.au/toilet/1893,Elcho Equestrian Club 2,Bacchus Marsh Road,Lara,Victoria,3212,TRUE,FALSE,-38.03167898,144.3553432
1894,https://toiletmap.gov.au/toilet/1894,Elcho Golf Course,Elcho Road,Lara,Victoria,3212,TRUE,FALSE,-38.02666821,144.3651485
1895,https://toiletmap.gov.au/toilet/1895,Elcho K9 Club,Elcho Road,Lara,Victoria,3212,FALSE,FALSE,-38.02740673,144.3612402
1896,https://toiletmap.gov.au/toilet/1896,Elderslie Reserve,Raith Terrace,Newtown,Victoria,3220,FALSE,FALSE,-38.1424456,144.3240003
1897,https://toiletmap.gov.au/toilet/1897,Ervin Reserve,Richard St.,Newcomb,Victoria,3219,TRUE,FALSE,-38.16834788,144.3958568
1898,https://toiletmap.gov.au/toilet/1898,Evans Reserve,Sparks Road,Norlane,Victoria,3214,TRUE,FALSE,-38.09122796,144.3501321
1899,https://toiletmap.gov.au/toilet/1899,Fairy Dell,Springs Street,Clifton Springs,Victoria,3222,FALSE,FALSE,-38.15394257,144.5635285
1900,https://toiletmap.gov.au/toilet/1900,Lara 5 Ways,Forest Road North N,Lara,Victoria,3212,TRUE,TRUE,-38.02265636,144.3962162
1901,https://toiletmap.gov.au/toilet/1901,Foreshore Road,Foreshore Road,Corio,Victoria,3214,TRUE,FALSE,-38.07172321,144.4051851
1902,https://toiletmap.gov.au/toilet/1902,Frier Reserve,Lambert Avenue,Newtown,Victoria,3220,FALSE,FALSE,-38.1594041,144.3410741
1903,https://toiletmap.gov.au/toilet/1903,Barwon Village Park,Geelong Road,Barwon Heads,Victoria,3227,TRUE,FALSE,-38.27327253,144.4934237
1904,https://toiletmap.gov.au/toilet/1904,Fyans Park,Garilcoh Close,Newtown,Victoria,3220,FALSE,FALSE,-38.15555811,144.3216892
1905,https://toiletmap.gov.au/toilet/1905,Fyansford Common,The Parade,Fyansford,Victoria,3221,TRUE,FALSE,-38.14238404,144.3108687
1906,https://toiletmap.gov.au/toilet/1906,Gateway Sanctuary,Melaluka Road,Leopold,Victoria,3224,FALSE,FALSE,-38.18786323,144.4546326
1907,https://toiletmap.gov.au/toilet/1907,Grinter Reserve,Coppards Road,Whittington,Victoria,3219,TRUE,FALSE,-38.18038835,144.401647
1908,https://toiletmap.gov.au/toilet/1908,Grinter Reserve,Coppards Road,Moolap,Victoria,3221,TRUE,FALSE,-38.17959333,144.4043882
1909,https://toiletmap.gov.au/toilet/1909,Grovedale Community Centre,Bieske Road,Grovedale,Victoria,3216,FALSE,FALSE,-38.20874335,144.3343864
1910,https://toiletmap.gov.au/toilet/1910,Grovedale Reserve,Reserve Road,Grovedale,Victoria,3216,TRUE,FALSE,-38.20565234,144.3418584
1912,https://toiletmap.gov.au/toilet/1912,Hamlyn Reserve,Carey Street,Hamlyn Heights,Victoria,3215,TRUE,FALSE,-38.12542227,144.3305422
1913,https://toiletmap.gov.au/toilet/1913,Hemisphere,High Street,Belmont,Victoria,3216,TRUE,FALSE,-38.17382324,144.3433085
1915,https://toiletmap.gov.au/toilet/1915,Herne Hill Reserve,Finchaven Street,Herne Hill,Victoria,3218,TRUE,FALSE,-38.13803565,144.3263032
1916,https://toiletmap.gov.au/toilet/1916,Highton Reserve,Roslyn Road,Highton,Victoria,3216,TRUE,FALSE,-38.17235567,144.3206948
1917,https://toiletmap.gov.au/toilet/1917,Hitchcock Avenue,Hitchcock Avenue,Barwon Heads,Victoria,3227,TRUE,TRUE,-38.28086569,144.4920021
1918,https://toiletmap.gov.au/toilet/1918,Howard Glover,Holt Road,East Geelong,Victoria,3219,TRUE,FALSE,-38.15383448,144.3837397
1919,https://toiletmap.gov.au/toilet/1919,Hume Reserve,Hume Reserve Crt,Bell Park,Victoria,3215,TRUE,FALSE,-38.10716599,144.3411774
1920,https://toiletmap.gov.au/toilet/1920,Hurst Football Ovals,Douglass Street,Herne Hill,Victoria,3218,FALSE,FALSE,-38.1319189,144.3281323
1922,https://toiletmap.gov.au/toilet/1922,Clifton Springs Boat Ramp,Boat Ramp,Clifton Springs,Victoria,3222,TRUE,FALSE,-38.15586801,144.5513161
1923,https://toiletmap.gov.au/toilet/1923,Clifton Springs Tennis Club,Jetty Road,Clifton Springs,Victoria,3222,FALSE,FALSE,-38.16245507,144.5537809
1924,https://toiletmap.gov.au/toilet/1924,Johnstone Park,Little Malop Street,Geelong,Victoria,3220,FALSE,FALSE,-38.14700574,144.3563157
1925,https://toiletmap.gov.au/toilet/1925,Kardinia Park,Latrobe Terrace,South Geelong,Victoria,3220,TRUE,FALSE,-38.15615084,144.352295
1926,https://toiletmap.gov.au/toilet/1926,Kingston Park,Adco Grove,Ocean Grove,Victoria,3226,TRUE,FALSE,-38.25496311,144.5379755
1928,https://toiletmap.gov.au/toilet/1928,Labuan Square ,Iona Street,Norlane,Victoria,3214,FALSE,FALSE,-38.09643855,144.361211
1929,https://toiletmap.gov.au/toilet/1929,Landy Field,Barwon Terrace,South Geelong,Victoria,3220,TRUE,FALSE,-38.16637057,144.3602319
1930,https://toiletmap.gov.au/toilet/1930,Lara Baseball Club,Alkara Avenue,Hovell Park,Victoria,,FALSE,FALSE,-38.01835425,144.4129271
1931,https://toiletmap.gov.au/toilet/1931,Lara Reserve,Waverley Road,Lara,Victoria,3212,FALSE,FALSE,-38.01996541,144.4126428
1932,https://toiletmap.gov.au/toilet/1932,Lara Tennis Club,Waverley Road,Lara,Victoria,3212,FALSE,FALSE,-38.02105559,144.4114403
1933,https://toiletmap.gov.au/toilet/1933,Leopold Reserve 1,Melaluka Road,Leopold,Victoria,3224,FALSE,FALSE,-38.18429149,144.4565399
1934,https://toiletmap.gov.au/toilet/1934,Leopold Reserve 2,Melaluka Road,Leopold,Victoria,3224,TRUE,FALSE,-38.18594585,144.456556
1935,https://toiletmap.gov.au/toilet/1935,Limeburners Point,Limeburners Road,East Geelong,Victoria,3219,TRUE,FALSE,-38.14418027,144.3843815
1936,https://toiletmap.gov.au/toilet/1936,Rees Reserve,Old Melbourne Road,Little River,Victoria,3211,TRUE,FALSE,-37.97855075,144.5086461
1937,https://toiletmap.gov.au/toilet/1937,Little Ryrie Street,Ryrie Street,Geelong,Victoria,3220,TRUE,FALSE,-38.14982484,144.3584621
1938,https://toiletmap.gov.au/toilet/1938,McDonald Reserve,Reynolds Road,Highton,Victoria,3216,TRUE,FALSE,-38.18300182,144.3245099
1941,https://toiletmap.gov.au/toilet/1941,Moolap Reserve,Wills Crescent,Moolap,Victoria,3221,TRUE,FALSE,-38.1695936,144.4225341
1944,https://toiletmap.gov.au/toilet/1944,Moorak Park,Noble Street,Newtown,Victoria,3220,FALSE,FALSE,-38.15383091,144.3399436
1945,https://toiletmap.gov.au/toilet/1945,Moorpanyal Park,The Esplanade,North Shore,Victoria,3214,TRUE,FALSE,-38.10092221,144.3716982
1947,https://toiletmap.gov.au/toilet/1947,Myers Reserve,Bluestone Bridge Road,Bell Post Hill,Victoria,3215,FALSE,FALSE,-38.09403283,144.318034
1948,https://toiletmap.gov.au/toilet/1948,Myers Street,Myers Street,East Geelong,Victoria,3219,FALSE,FALSE,-38.15509237,144.3718501
1949,https://toiletmap.gov.au/toilet/1949,Newcomb Community Centre,Bellarine Highway,Newcomb,Victoria,3219,FALSE,FALSE,-38.17006749,144.3922833
1950,https://toiletmap.gov.au/toilet/1950,Ocean Grove Foreshore,Hodgson Street,Ocean Grove,Victoria,3226,TRUE,FALSE,-38.27090579,144.5246392
1952,https://toiletmap.gov.au/toilet/1952,Ocean Grove Car Park,The Parade,Ocean Grove,Victoria,3226,TRUE,FALSE,-38.26711267,144.5227555
1953,https://toiletmap.gov.au/toilet/1953,Ocean Grove Reserve,The Avenue,Ocean Grove,Victoria,3226,FALSE,FALSE,-38.2656036,144.5292909
1954,https://toiletmap.gov.au/toilet/1954,Ocean Grove Tennis Courts,Asbury Street,Ocean Grove,Victoria,3226,FALSE,FALSE,-38.26292749,144.5314167
1955,https://toiletmap.gov.au/toilet/1955,Osbourne Park,Swinburne Street,Merrijig,Victoria,3723,TRUE,FALSE,-38.1195837,144.3559026
1956,https://toiletmap.gov.au/toilet/1956,Pier Street,Pier Street,Portarlington,Victoria,3223,TRUE,FALSE,-38.1145684,144.6528304
1957,https://toiletmap.gov.au/toilet/1957,Peter Lowe Reserve,Minerva Road,Manifold Heights,Victoria,3218,TRUE,FALSE,-38.13692061,144.3309256
1958,https://toiletmap.gov.au/toilet/1958,Pettit Park,Beauford Ave,Bell Post Hill,Victoria,3215,TRUE,FALSE,-38.10250305,144.3287344
1959,https://toiletmap.gov.au/toilet/1959,Point Henry,Point Henry Road,Moolap,Victoria,3221,TRUE,FALSE,-38.1276645,144.4247973
1960,https://toiletmap.gov.au/toilet/1960,Portarlington Football Rooms,Boat Road,Portarlington,Victoria,3223,TRUE,FALSE,-38.11329324,144.6453941
1961,https://toiletmap.gov.au/toilet/1961,Portarlington Reserve,Sproat Street,Portarlington,Victoria,3223,FALSE,FALSE,-38.11399445,144.6452834
1962,https://toiletmap.gov.au/toilet/1962,Quarry Park,Hutchinson Court,Clifton Springs,Victoria,3222,TRUE,FALSE,-38.16064952,144.5827709
1963,https://toiletmap.gov.au/toilet/1963,Queens Park Car Park,Queens Park Road,Highton,Victoria,3216,TRUE,FALSE,-38.14873495,144.319444
1964,https://toiletmap.gov.au/toilet/1964,Queens Park Picnic Area,Queens Park Road,Highton,Victoria,3216,TRUE,FALSE,-38.14681662,144.3173708
1965,https://toiletmap.gov.au/toilet/1965,Queens Park - Stinton Oval,Queens Park Road,Newtown,Victoria,3220,FALSE,FALSE,-38.1472252,144.3219431
1966,https://toiletmap.gov.au/toilet/1966,Queens Park River Car Park,Queens Park Road,Highton,Victoria,3216,FALSE,FALSE,-38.14929453,144.3234478
1967,https://toiletmap.gov.au/toilet/1967,Barwon Valley No. 4,Barwon Terrace (West),South Geelong,Victoria,3220,FALSE,FALSE,-38.16382559,144.352833
1968,https://toiletmap.gov.au/toilet/1968,Richmond Reserve,Richmond Court,Geelong,Victoria,3220,TRUE,FALSE,-38.15952189,144.3665787
1969,https://toiletmap.gov.au/toilet/1969,Rippleside Park,Rippleside Park Drive,Rippleside,Victoria,3215,TRUE,FALSE,-38.12707537,144.3552289
1971,https://toiletmap.gov.au/toilet/1971,Robin Avenue,Curlew Crescent,Norlane,Victoria,3214,TRUE,FALSE,-38.08633802,144.3519482
1972,https://toiletmap.gov.au/toilet/1972,Seagull Park,Birdwood Avenue,Norlane,Victoria,3214,FALSE,FALSE,-38.10250925,144.3525459
1973,https://toiletmap.gov.au/toilet/1973,Sheepwash Road,River Parade,Barwon Heads,Victoria,3227,TRUE,FALSE,-38.26246274,144.490189
1974,https://toiletmap.gov.au/toilet/1974,Shell Road Reserve,Shell Road,Ocean Grove,Victoria,3226,TRUE,FALSE,-38.25905083,144.5398699
1975,https://toiletmap.gov.au/toilet/1975,Sladen Park,Julian St,Newtown,Victoria,3220,FALSE,FALSE,-38.1573471,144.3463451
1976,https://toiletmap.gov.au/toilet/1976,Sparrow Park,Hope Street,Geelong West,Victoria,3218,FALSE,FALSE,-38.14039619,144.3402136
1977,https://toiletmap.gov.au/toilet/1977,St Albans Reserve,St Albans Road,Breakwater,Victoria,3219,TRUE,FALSE,-38.17796721,144.3816061
1979,https://toiletmap.gov.au/toilet/1979,St Helens Reserve,Bay Street,North Geelong,Victoria,3215,FALSE,FALSE,-38.1222955,144.3586924
1980,https://toiletmap.gov.au/toilet/1980,St Helens Coast Guard,Swinburne Street,North Geelong,Victoria,3215,TRUE,FALSE,-38.12054058,144.3593389
1981,https://toiletmap.gov.au/toilet/1981,St Leonards Foreshore,Bluff Road,Geelong,Victoria,3220,FALSE,FALSE,-38.17359691,144.7191469
1982,https://toiletmap.gov.au/toilet/1982,St Leonards Lake Reserve,Mcleod Street,Saint Leonards,Victoria,3223,FALSE,FALSE,-38.17655373,144.7150825
1983,https://toiletmap.gov.au/toilet/1983,St Leonards Main Street,Murradoc Road,St Leonards,Victoria,3223,FALSE,FALSE,-38.17166419,144.716852
1984,https://toiletmap.gov.au/toilet/1984,St Leonards Reserve,Cole Street,St Leonards,Victoria,3223,FALSE,FALSE,-38.17609294,144.7107627
1986,https://toiletmap.gov.au/toilet/1986,Green Wharf Shed ,Eastern Beach Road,Geelong,Victoria,3220,FALSE,FALSE,-38.14485324,144.3643407
1987,https://toiletmap.gov.au/toilet/1987,South Barwon Reserve 3,Barwon Heads Road,Belmont,Victoria,3216,TRUE,FALSE,-38.18290812,144.3549014
1988,https://toiletmap.gov.au/toilet/1988,South Barwon Reserve 1,Barwon Heads Road,Belmont,Victoria,3216,TRUE,FALSE,-38.18405236,144.3550845
1989,https://toiletmap.gov.au/toilet/1989,South Barwon Reserve 2,Barwon Heads Road,Belmont,Victoria,3216,TRUE,FALSE,-38.18390937,144.3577181
1990,https://toiletmap.gov.au/toilet/1990,Swan Bay Reserve,Swan Bay Road,Swan Bay,Victoria,3225,TRUE,FALSE,-38.22718786,144.6518572
1991,https://toiletmap.gov.au/toilet/1991,Thompson Reserve,St Albans Road,Thomson,Victoria,3219,TRUE,FALSE,-38.16499676,144.3751779
1993,https://toiletmap.gov.au/toilet/1993,Transvaal Square,Brougham Street,Geelong,Victoria,3220,FALSE,FALSE,-38.14622408,144.3661568
1994,https://toiletmap.gov.au/toilet/1994,Wallington Reserve,Wallington Road,Wallington,Victoria,3221,TRUE,FALSE,-38.22765704,144.5029049
1995,https://toiletmap.gov.au/toilet/1995,Drysdale Tennis Pavilion,Collins Street,Drysdale,Victoria,3222,FALSE,FALSE,-38.16873196,144.5743937
1996,https://toiletmap.gov.au/toilet/1996,Torquay Road,Tanunda Grove,Belmont,Victoria,3216,FALSE,FALSE,-38.19022334,144.3427489
1997,https://toiletmap.gov.au/toilet/1997,West Park,Autumn Street,Geelong West,Victoria,3218,TRUE,FALSE,-38.14313651,144.3467156
1998,https://toiletmap.gov.au/toilet/1998,Geelong West Town Hall,Albert Street,Geelong West,Victoria,3218,TRUE,FALSE,-38.14084251,144.3472364
1999,https://toiletmap.gov.au/toilet/1999,Western Oval 1,Church Street,North Geelong,Victoria,3215,FALSE,FALSE,-38.13075221,144.3451057
2001,https://toiletmap.gov.au/toilet/2001,Western Oval 3,Weddell Road,North Geelong,Victoria,3215,TRUE,FALSE,-38.12928573,144.3452631
2002,https://toiletmap.gov.au/toilet/2002,Windmill Reserve,Mayfair Drive,Newtown,Victoria,3220,TRUE,FALSE,-38.15220958,144.3241047
2003,https://toiletmap.gov.au/toilet/2003,Windsor Park,Rose Avenue,Norlane,Victoria,3214,TRUE,FALSE,-38.08962115,144.3606102
2004,https://toiletmap.gov.au/toilet/2004,Winter Reserve,James Street,Belmont,Victoria,3216,FALSE,FALSE,-38.18453129,144.339512
2006,https://toiletmap.gov.au/toilet/2006,Pioneer Reserve,Pioneer Road,Grovedale,Victoria,3216,FALSE,FALSE,-38.19758232,144.3217773
2143,https://toiletmap.gov.au/toilet/2143,Cartledge Reserve,Valentine Street,Ivanhoe,Victoria,3079,FALSE,FALSE,-37.76063013,145.0342581
2144,https://toiletmap.gov.au/toilet/2144,Ivanhoe Park,Lower Heidelberg Road,Ivanhoe East,Victoria,3079,FALSE,FALSE,-37.77245382,145.050624
2145,https://toiletmap.gov.au/toilet/2145,Nellie Ibbott Reserve,Maud Street,Ivanhoe,Victoria,3079,FALSE,FALSE,-37.76846473,145.0378276
2146,https://toiletmap.gov.au/toilet/2146,Ivanhoe Shopping Centre,107 Waterdale Road,Ivanhoe,Victoria,3079,FALSE,FALSE,-37.7702695,145.0428275
2147,https://toiletmap.gov.au/toilet/2147,Ford Park,Davidson Street,Bellfield,Victoria,3081,FALSE,FALSE,-37.75483913,145.0368098
2148,https://toiletmap.gov.au/toilet/2148,James Reserve,James Street,Heidelberg Heights,Victoria,3081,FALSE,FALSE,-37.75012225,145.0520061
2149,https://toiletmap.gov.au/toilet/2149,Liberty Parade,LIberty Parade,Bellfield,Victoria,3081,FALSE,FALSE,-37.75474927,145.0333701
2150,https://toiletmap.gov.au/toilet/2150,Malahang Reserve,Oriel Road,Heidelberg West,Victoria,3081,FALSE,FALSE,-37.74247132,145.0431402
2151,https://toiletmap.gov.au/toilet/2151,Olympic Soccer Ground 2,Catalina Street,Heidelberg West,Victoria,3081,FALSE,FALSE,-37.73823133,145.0350817
2152,https://toiletmap.gov.au/toilet/2152,Olympic Soccer Ground 1,Catalina Street,Heidelberg West,Victoria,3081,FALSE,FALSE,-37.73873233,145.0354888
2153,https://toiletmap.gov.au/toilet/2153,Shelley Reserve,Shelley Street,Heidelberg Heights,Victoria,3081,FALSE,FALSE,-37.73995336,145.0491094
2154,https://toiletmap.gov.au/toilet/2154,Olympic Ovals,Catalina Street,Heidelberg West,Victoria,3081,FALSE,FALSE,-37.73979696,145.0353948
2155,https://toiletmap.gov.au/toilet/2155,Loyola Reserve,Gleeson Drive,Watsonia,Victoria,3087,FALSE,FALSE,-37.70442208,145.0755054
2156,https://toiletmap.gov.au/toilet/2156,Mental Health Reserve,Greenwood Drive,Watsonia,Victoria,3087,FALSE,FALSE,-37.70825234,145.0728848
2157,https://toiletmap.gov.au/toilet/2157,Telfer Reserve - East,Dilkara Avenue,Bundoora,Victoria,3083,FALSE,FALSE,-37.70486568,145.066313
2158,https://toiletmap.gov.au/toilet/2158,Telfer Reserve West,Greenwood Drive,Bundoora,Victoria,3083,FALSE,FALSE,-37.7041803,145.0636117
2159,https://toiletmap.gov.au/toilet/2159,Warrawee Park,Jacqueline Road,Watsonia North,Victoria,3087,FALSE,FALSE,-37.69643909,145.0727636
2160,https://toiletmap.gov.au/toilet/2160,Yulong Reserve (East),Cameron Parade,Bundoora,Victoria,3083,FALSE,FALSE,-37.69752779,145.0631278
2161,https://toiletmap.gov.au/toilet/2161,Yulong Reserve (West),Plenty Road,Bundoora,Victoria,3083,FALSE,FALSE,-37.69660051,145.0600233
2162,https://toiletmap.gov.au/toilet/2162,Banyule Flats Reserve,Somerset Drive,Heidelberg,Victoria,3084,FALSE,FALSE,-37.75279635,145.0781516
2165,https://toiletmap.gov.au/toilet/2165,Cape Street Car Park,127 Burgundy Street,Heidelberg,Victoria,3084,FALSE,FALSE,-37.75633861,145.0690351
2166,https://toiletmap.gov.au/toilet/2166,Heidelberg Park,Beverley Road,Heidelberg,Victoria,3084,FALSE,FALSE,-37.75506842,145.0723884
2167,https://toiletmap.gov.au/toilet/2167,Price Park,Lyon Road,Viewbank,Victoria,,FALSE,FALSE,-37.73601341,145.0860856
2168,https://toiletmap.gov.au/toilet/2168,Rosanna Shopping Centre Car Park,Invermay Grove,Rosanna,Victoria,3084,FALSE,FALSE,-37.74134647,145.065114
2169,https://toiletmap.gov.au/toilet/2169,Viewbank Reserve,Rutherford Road,Viewbank,Victoria,,FALSE,FALSE,-37.74080778,145.0924506
2170,https://toiletmap.gov.au/toilet/2170,Warringal Park,Beverly Road,Heidelberg,Victoria,3084,FALSE,FALSE,-37.75630835,145.0737523
2171,https://toiletmap.gov.au/toilet/2171,MacLeod Park,Chapman Street,Macleod,Victoria,3085,FALSE,FALSE,-37.72989655,145.0688093
2172,https://toiletmap.gov.au/toilet/2172,Macleod Shopping Centre,Aberdeen Road,Macleod,Victoria,3085,FALSE,FALSE,-37.72506075,145.0700905
2173,https://toiletmap.gov.au/toilet/2173,Windsor Park,Somers Avenue,Macleod,Victoria,3085,FALSE,FALSE,-37.71807563,145.0798031
2174,https://toiletmap.gov.au/toilet/2174,Yallambie Park,Moola Close,Yallambie,Victoria,3085,FALSE,FALSE,-37.72906216,145.1063548
2175,https://toiletmap.gov.au/toilet/2175,AK Line Reserve,Grimshaw Street,Watsonia,Victoria,3087,FALSE,FALSE,-37.70331288,145.0877969
2176,https://toiletmap.gov.au/toilet/2176,Binnak Park - North,Binnak Drive,Watsonia North,Victoria,3087,FALSE,FALSE,-37.69306728,145.081533
2177,https://toiletmap.gov.au/toilet/2177,Binnak Park - Central,Anderson Parade,Watsonia North,Victoria,3087,FALSE,FALSE,-37.69542318,145.0814917
2178,https://toiletmap.gov.au/toilet/2178,Binnak Park - South,Anderson Parade,Watsonia North,Victoria,3087,FALSE,FALSE,-37.69761375,145.0812851
2179,https://toiletmap.gov.au/toilet/2179,Elder Street,Elder Street,Watsonia,Victoria,3087,FALSE,FALSE,-37.71513362,145.0925501
2181,https://toiletmap.gov.au/toilet/2181,Watsonia Shopping Centre,Watsonia Road,Watsonia,Victoria,3087,FALSE,FALSE,-37.7112899,145.083416
2182,https://toiletmap.gov.au/toilet/2182,Central Park,Plenty Lane,Greensborough,Victoria,3088,FALSE,FALSE,-37.71567079,145.1051973
2183,https://toiletmap.gov.au/toilet/2183,Fell Reserve,Grimshaw Street,Greensborough,Victoria,3088,FALSE,FALSE,-37.70327145,145.0964349
2184,https://toiletmap.gov.au/toilet/2184,Greensborough War Memorial Reserve - East,Henry Street,Greensborough,Victoria,3088,FALSE,FALSE,-37.70624727,145.1000721
2185,https://toiletmap.gov.au/toilet/2185,Greensborough War Memorial Reserve - West,Mcdowell Street,Greensborough,Victoria,3088,FALSE,FALSE,-37.70599932,145.0970136
2187,https://toiletmap.gov.au/toilet/2187,Kalparrin Gardens,Yando Street,Greensborough,Victoria,3088,FALSE,FALSE,-37.69786156,145.096784
2188,https://toiletmap.gov.au/toilet/2188,Greensborough Park,Diamond Creek Road,Greensborough,Victoria,3088,FALSE,FALSE,-37.70017149,145.1058996
2189,https://toiletmap.gov.au/toilet/2189,Malcolm Blair Reserve,120 Karingal Drive,Greensborough,Victoria,3088,FALSE,FALSE,-37.70252715,145.1265236
2190,https://toiletmap.gov.au/toilet/2190,Partingtons Flat,Kalparrin Avenue,Greensborough,Victoria,3088,FALSE,FALSE,-37.69782015,145.1035623
2191,https://toiletmap.gov.au/toilet/2191,Pioneer Reserve,St Helena Road,Greensborough,Victoria,3088,FALSE,FALSE,-37.70017146,145.1085861
2192,https://toiletmap.gov.au/toilet/2192,Poulter Reserve,Poulter Avenue,Greensborough,Victoria,3088,FALSE,FALSE,-37.70343663,145.1094541
2193,https://toiletmap.gov.au/toilet/2193,Whatmough Park,Kalparrin Avenue,Greensborough,Victoria,3088,FALSE,FALSE,-37.69893162,145.0988734
2194,https://toiletmap.gov.au/toilet/2194,Willinda Park,Beatrix Street,Greensborough,Victoria,3088,FALSE,FALSE,-37.71104162,145.1092062
2195,https://toiletmap.gov.au/toilet/2195,Lower Plenty Shopping Centre,5-7 Para Road,Lower Plenty,Victoria,3093,FALSE,FALSE,-37.72707818,145.1128436
2197,https://toiletmap.gov.au/toilet/2197,Montmorency Football Ground,Para Road,Montmorency,Victoria,3094,FALSE,FALSE,-37.71513338,145.11367
2198,https://toiletmap.gov.au/toilet/2198,Montmorency Shopping Centre,Were Street,Montmorency,Victoria,3094,FALSE,FALSE,-37.71670389,145.1216055
2199,https://toiletmap.gov.au/toilet/2199,Petrie Park,Mountain View Road,Montmorency,Victoria,3094,FALSE,FALSE,-37.7170345,145.1249533
2260,https://toiletmap.gov.au/toilet/2260,Syndal Shopping Centre,Blackburn Road,Mount Waverley,Victoria,3149,FALSE,FALSE,-37.87363465,145.1478275
2261,https://toiletmap.gov.au/toilet/2261,Hughesdale Shopping Centre,Euston Road,Hughesdale,Victoria,3166,FALSE,FALSE,-37.89365715,145.077317
2262,https://toiletmap.gov.au/toilet/2262,Brickmakers Park,Stamford Road,Oakleigh,Victoria,3166,FALSE,FALSE,-37.8945232,145.1001003
2263,https://toiletmap.gov.au/toilet/2263,Warrawee Park,Atherton Road,Oakleigh,Victoria,3166,FALSE,FALSE,-37.89842168,145.0894884
2264,https://toiletmap.gov.au/toilet/2264,Oakleigh Shopping Centre,Chester Street,Oakleigh,Victoria,3166,FALSE,FALSE,-37.89976444,145.0909178
2266,https://toiletmap.gov.au/toilet/2266,Huntingdale Shopping Centre,Huntingdale Road,Huntingdale,Victoria,3166,FALSE,FALSE,-37.91137275,145.1038256
2268,https://toiletmap.gov.au/toilet/2268,Valley Reserve,Waimarie Drive,Mount Waverley,Victoria,3149,FALSE,FALSE,-37.87941167,145.1351527
2269,https://toiletmap.gov.au/toilet/2269,Pinewood Shopping Centre,Blackburn Road,Notting Hill,Victoria,3168,FALSE,FALSE,-37.89080344,145.1446388
2270,https://toiletmap.gov.au/toilet/2270,Reg Harris Reserve,Carmichael Road,Oakleigh East,Victoria,3166,FALSE,FALSE,-37.89816737,145.1131061
2271,https://toiletmap.gov.au/toilet/2271,Glen Waverley Station & Bus Interchange,Railway Parade,Glen Waverley,Victoria,3150,FALSE,FALSE,-37.87962792,145.163307
2272,https://toiletmap.gov.au/toilet/2272,Talbot Park,Centre Road,Oakleigh South,Victoria,3167,FALSE,FALSE,-37.92632255,145.1035465
2273,https://toiletmap.gov.au/toilet/2273,Clayton District Centre - Cooke Street Carpark,Cooke Street,Clayton,Victoria,3168,FALSE,FALSE,-37.9275352,145.1185766
2351,https://toiletmap.gov.au/toilet/2351,Hannah Watts Park,High Street,Melton,Victoria,3337,FALSE,FALSE,-37.68325187,144.5891225
2352,https://toiletmap.gov.au/toilet/2352,Melton Recreation Reserve,40-66 Reserve Road,Melton,Victoria,3337,FALSE,FALSE,-37.68417124,144.5893224
2354,https://toiletmap.gov.au/toilet/2354,Staughton Street,2-98 Staughton Street,Melton South,Victoria,3338,TRUE,FALSE,-37.70382835,144.5740431
2355,https://toiletmap.gov.au/toilet/2355,Cemetery,Centenary Avenue,Melton,Victoria,3337,FALSE,FALSE,-37.67445805,144.5793693
2356,https://toiletmap.gov.au/toilet/2356,McPherson Park,783-857 Coburns Road,Toolern Vale,Victoria,3337,FALSE,FALSE,-37.64481934,144.5746535
2357,https://toiletmap.gov.au/toilet/2357,Toolern Vale Recreation Reserve,Diggers Rest-Coimadai Road,Toolern Vale,Victoria,3337,FALSE,FALSE,-37.60827316,144.5945226
2359,https://toiletmap.gov.au/toilet/2359,Eltham Central Park,Panther Place,Eltham,Victoria,3095,FALSE,FALSE,-37.71475085,145.1453287
2360,https://toiletmap.gov.au/toilet/2360,Alistair Knox Park,Main Road,Eltham,Victoria,3095,FALSE,FALSE,-37.71726064,145.1452581
2363,https://toiletmap.gov.au/toilet/2363,Park 1,Pitt Street,Eltham,Victoria,3095,FALSE,FALSE,-37.72114906,145.1430665
2364,https://toiletmap.gov.au/toilet/2364,Park 2,Hohnes Road,Eltham,Victoria,3095,FALSE,FALSE,-37.7341222,145.1424305
2365,https://toiletmap.gov.au/toilet/2365,Eltham North Adventure Playground,The Parade,Eltham North,Victoria,3095,FALSE,FALSE,-37.69887901,145.1532465
2366,https://toiletmap.gov.au/toilet/2366,Research Park,Henzell Road,Research,Victoria,3095,FALSE,FALSE,-37.70230759,145.1781671
2368,https://toiletmap.gov.au/toilet/2368,Eltham-Yarra Glen Road,Eltham-Yarra Glen Road,Research,Victoria,3095,FALSE,FALSE,-37.70396899,145.1794751
2369,https://toiletmap.gov.au/toilet/2369,Eltham-Yarra Glen Road,Eltham-Yarra Glen Road,Kangaroo Ground,Victoria,3097,FALSE,FALSE,-37.68845644,145.2250081
2370,https://toiletmap.gov.au/toilet/2370,Eltham-Yarra Glen Road,Eltham-Yarra Glen Road,Kangaroo Ground,Victoria,3097,FALSE,FALSE,-37.6904361,145.2156762
2371,https://toiletmap.gov.au/toilet/2371,Rodger Road,Rodger Road,Panton Hill,Victoria,3759,FALSE,FALSE,-37.64285311,145.2392149
2372,https://toiletmap.gov.au/toilet/2372,Bishops Road,Bishops Road,Panton Hill,Victoria,3759,FALSE,FALSE,-37.64189867,145.2409823
2373,https://toiletmap.gov.au/toilet/2373,Proctor Street,Proctor Street,St Andrews,Victoria,,FALSE,FALSE,-37.60521527,145.2675424
2375,https://toiletmap.gov.au/toilet/2375,Hurstbridge-Arthurs Creek Road,Hurstbridge-Arthurs Creek Road,Hurstbridge,Victoria,3099,FALSE,FALSE,-37.6373235,145.1929833
2377,https://toiletmap.gov.au/toilet/2377,Wilson Road,Wilson Road,Wattle Glen,Victoria,3096,FALSE,FALSE,-37.6602503,145.1801783
2378,https://toiletmap.gov.au/toilet/2378,Phipps Crescent Reserve,Phipps Crescent,Diamond Creek,Victoria,3089,FALSE,FALSE,-37.67749948,145.1637014
2379,https://toiletmap.gov.au/toilet/2379,Park 1,Campbell Street,Diamond Creek,Victoria,3089,FALSE,FALSE,-37.67894992,145.1491373
2380,https://toiletmap.gov.au/toilet/2380,Nillumbik Park,Elizabeth Street,Diamond Creek,Victoria,3089,FALSE,FALSE,-37.67206875,145.1562958
2381,https://toiletmap.gov.au/toilet/2381,Park 2,Diamond Street,Diamond Creek,Victoria,3089,FALSE,FALSE,-37.67401278,145.1523462
2383,https://toiletmap.gov.au/toilet/2383,Gastons Road,Gastons Road,Eltham North,Victoria,3095,FALSE,FALSE,-37.70185926,145.1543887
2386,https://toiletmap.gov.au/toilet/2386,Plenty Park,Memorial Drive,Plenty,Victoria,3090,FALSE,FALSE,-37.67160627,145.1234647
2388,https://toiletmap.gov.au/toilet/2388,Old Hurstbridge Road,Old Hurstbridge Road,Wattle Glen,Victoria,3096,FALSE,FALSE,-37.6669462,145.1837578
2506,https://toiletmap.gov.au/toilet/2506,King George V Gardens,Ovens Street,Wangaratta,Victoria,3677,FALSE,TRUE,-36.35272224,146.3258053
2508,https://toiletmap.gov.au/toilet/2508,Car Park 3,Ely Street,Wangaratta,Victoria,3677,FALSE,FALSE,-36.35653999,146.3265353
2509,https://toiletmap.gov.au/toilet/2509,Merriwa Park Bike Hub,Murphy Street,Wangaratta,Victoria,3677,TRUE,TRUE,-36.35670843,146.3249633
2510,https://toiletmap.gov.au/toilet/2510,Merriwa Park,Ryley Street,Wangaratta,Victoria,3677,FALSE,FALSE,-36.35837965,146.3237549
2511,https://toiletmap.gov.au/toilet/2511,Apex Park,Parfitt Road,Wangaratta,Victoria,3677,TRUE,FALSE,-36.35216728,146.3308008
2512,https://toiletmap.gov.au/toilet/2512,HP Barr Reserve,Edwards Street,Wangaratta,Victoria,3677,FALSE,FALSE,-36.3438744,146.3146885
2513,https://toiletmap.gov.au/toilet/2513,Rotary Park,Swan Street,Wangaratta,Victoria,3677,FALSE,FALSE,-36.34674248,146.3121444
2514,https://toiletmap.gov.au/toilet/2514,Wareena Park,Swan Street,Wangaratta,Victoria,3677,FALSE,TRUE,-36.35884079,146.3093014
2515,https://toiletmap.gov.au/toilet/2515,Batchelor's Green,Tone Road,Wangaratta,Victoria,3677,TRUE,FALSE,-36.35978404,146.3152453
2516,https://toiletmap.gov.au/toilet/2516,South Wangaratta Reserve,Shanley Street,Wangaratta,Victoria,3677,FALSE,FALSE,-36.37133918,146.2830615
2517,https://toiletmap.gov.au/toilet/2517,Bindall Avenue,Bindall Avenue,Wangaratta,Victoria,3677,TRUE,FALSE,-36.37700436,146.3226906
2518,https://toiletmap.gov.au/toilet/2518,Scout Park,Vincent Road,Wangaratta,Victoria,3677,FALSE,FALSE,-36.36639901,146.320777
2519,https://toiletmap.gov.au/toilet/2519,Mitchell Avenue Reserve,Mitchell Avenue,Wangaratta,Victoria,3677,TRUE,TRUE,-36.3757672,146.3176943
2520,https://toiletmap.gov.au/toilet/2520,Show Grounds,Evans Street,Wangaratta,Victoria,3677,FALSE,FALSE,-36.34801753,146.3164808
2521,https://toiletmap.gov.au/toilet/2521,Show Grounds- Sports Development Centre,Golf Links Lane,Wangaratta,Victoria,3677,FALSE,TRUE,-36.34633324,146.3163078
2522,https://toiletmap.gov.au/toilet/2522,Cemetery,Mason Street,Wangaratta,Victoria,3677,FALSE,FALSE,-36.37358476,146.2909901
2523,https://toiletmap.gov.au/toilet/2523,Lions Park,Glenrowan Road,Glenrowan,Victoria,3675,FALSE,FALSE,-36.46338637,146.2239822
2524,https://toiletmap.gov.au/toilet/2524,Gunhouse Park,Wangaratta Eldorado Road,Eldorado,Victoria,3746,FALSE,FALSE,-36.30899738,146.521773
2596,https://toiletmap.gov.au/toilet/2596,Beckett Park,Parring Road,Balwyn,Victoria,3103,TRUE,FALSE,-37.8111062,145.0915497
2597,https://toiletmap.gov.au/toilet/2597,Hartwell Reserve,Beryl Street,Glen Iris,Victoria,3146,FALSE,FALSE,-37.85364091,145.0870231
2599,https://toiletmap.gov.au/toilet/2599,Campberwell Sports Ground 1,Rowell Avenue,Camberwell,Victoria,3124,FALSE,FALSE,-37.83823454,145.0622022
2600,https://toiletmap.gov.au/toilet/2600,Balwyn Park,206 Whitehorse Road,Balwyn,Victoria,3103,FALSE,FALSE,-37.81403995,145.0782186
2601,https://toiletmap.gov.au/toilet/2601,Reservoir Reserve,Grange Road,Kew,Victoria,3101,FALSE,FALSE,-37.81135528,145.0574215
2602,https://toiletmap.gov.au/toilet/2602,Rathmines Reserve,Rathmines Road,Hawthorn East,Victoria,3123,FALSE,FALSE,-37.82057005,145.0541276
2603,https://toiletmap.gov.au/toilet/2603,Victoria Road Reserve,Victoria Road,Hawthorn East,Victoria,3123,FALSE,FALSE,-37.82158284,145.0473643
2604,https://toiletmap.gov.au/toilet/2604,Kew Library,Civic Drive,Kew,Victoria,3101,FALSE,FALSE,-37.80784873,145.0341592
2606,https://toiletmap.gov.au/toilet/2606,Fairview Park,Fairview Street,Hawthorn,Victoria,3122,FALSE,FALSE,-37.82869621,145.0254213
2607,https://toiletmap.gov.au/toilet/2607,St James Park,Barton Street,Hawthorn,Victoria,3122,FALSE,FALSE,-37.8201595,145.0218724
2608,https://toiletmap.gov.au/toilet/2608,Yarra Bank Reserve,Creswick Street,Hawthorn,Victoria,3122,TRUE,FALSE,-37.81946953,145.0157608
2609,https://toiletmap.gov.au/toilet/2609,Grace Street,Grace Street,Hawthorn,Victoria,3122,FALSE,FALSE,-37.8211274,145.0353023
2610,https://toiletmap.gov.au/toilet/2610,Cotham Road,Cotham Road,Kew,Victoria,3101,FALSE,FALSE,-37.80694428,145.0322395
2611,https://toiletmap.gov.au/toilet/2611,Fritsch Holzer Park,Camberwell Road,Hawthorn East,Victoria,3123,FALSE,FALSE,-37.82842923,145.051868
2612,https://toiletmap.gov.au/toilet/2612,Victoria Park,Adeney Avenue,Kew,Victoria,3101,FALSE,FALSE,-37.80238715,145.0473107
2615,https://toiletmap.gov.au/toilet/2615,Stradbroke Park,Burke Road,Kew East,Victoria,3102,FALSE,FALSE,-37.79960795,145.0622135
2616,https://toiletmap.gov.au/toilet/2616,Macleay Park,Belmore Road,Balwyn North,Victoria,3104,TRUE,TRUE,-37.80087817,145.0739392
2617,https://toiletmap.gov.au/toilet/2617,Hislop Park,Albury Road,Balwyn North,Victoria,3104,FALSE,FALSE,-37.79964814,145.0819973
2618,https://toiletmap.gov.au/toilet/2618,Freeway Golf Course,Carey Sports Complex Road,Balwyn North,Victoria,3104,FALSE,FALSE,-37.77577045,145.0708004
2619,https://toiletmap.gov.au/toilet/2619,Canterbury Gardens,190 Canterbury Road,Canterbury,Victoria,3126,FALSE,FALSE,-37.82414894,145.0800403
2623,https://toiletmap.gov.au/toilet/2623,Cooper Reserve,22 Green Street,Camberwell,Victoria,3124,FALSE,FALSE,-37.83976057,145.0959327
2625,https://toiletmap.gov.au/toilet/2625,Burwood Reserve,Warrigal Road,Glen Iris,Victoria,3146,TRUE,TRUE,-37.85460247,145.0944456
2626,https://toiletmap.gov.au/toilet/2626,Ashburton Park,High Street,Ashburton,Victoria,3147,TRUE,FALSE,-37.86347754,145.0861694
2627,https://toiletmap.gov.au/toilet/2627,Marquis Street,Marquis Street,Ashburton,Victoria,3147,FALSE,FALSE,-37.86262026,145.0784532
2628,https://toiletmap.gov.au/toilet/2628,Watson Park,Baird Street,Ashburton,Victoria,3147,FALSE,FALSE,-37.86898293,145.0738732
2630,https://toiletmap.gov.au/toilet/2630,Central Gardens,Williams Street,Hawthorn,Victoria,3122,FALSE,FALSE,-37.82120276,145.0412593
2631,https://toiletmap.gov.au/toilet/2631,Anderson Park,Anderson Road,Hawthorn East,Victoria,3123,TRUE,FALSE,-37.84011919,145.0486951
2633,https://toiletmap.gov.au/toilet/2633,John Gardiner Reserve,Auburn Road,Hawthorn East,Victoria,3123,FALSE,FALSE,-37.84038368,145.04232
2634,https://toiletmap.gov.au/toilet/2634,HA Smith Reserve,Reserve Road,Hawthorn,Victoria,3122,FALSE,FALSE,-37.83604758,145.0356417
2635,https://toiletmap.gov.au/toilet/2635,Patterson Reserve,Reserve Road,Hawthorn East,Victoria,3123,FALSE,FALSE,-37.83791493,145.0399145
2637,https://toiletmap.gov.au/toilet/2637,Burwood Shopping Centre,Darling Avenue,Burwood,Victoria,3125,TRUE,TRUE,-37.84946245,145.094895
2638,https://toiletmap.gov.au/toilet/2638,Camberwell Road,Camberwell Road,Camberwell,Victoria,3124,TRUE,FALSE,-37.83238659,145.0575293
2639,https://toiletmap.gov.au/toilet/2639,Walpole Street,Walpole Street,Kew,Victoria,3101,FALSE,FALSE,-37.80601208,145.0316325
2640,https://toiletmap.gov.au/toilet/2640,Deepdene Reserve,17-21 Whitehorse Road,Deepdene,Victoria,3103,FALSE,TRUE,-37.80995197,145.063192
2641,https://toiletmap.gov.au/toilet/2641,Balwyn Shopping Strip,Whitehorse Road,Balwyn,Victoria,3103,FALSE,FALSE,-37.81348568,145.0852504
2642,https://toiletmap.gov.au/toilet/2642,Maranoa Gardens,Kireep Road,Balwyn,Victoria,3103,FALSE,FALSE,-37.81079605,145.0897842
2644,https://toiletmap.gov.au/toilet/2644,Springvale Reserve,Newcomen Road,Springvale,Victoria,3171,FALSE,FALSE,-37.94354777,145.1486328
2645,https://toiletmap.gov.au/toilet/2645,Racecourse Road,Racecourse Road,Noble Park,Victoria,3174,FALSE,FALSE,-37.95004626,145.1741617
2646,https://toiletmap.gov.au/toilet/2646,Ross Reserve,Memorial Drive,Noble Park,Victoria,3174,FALSE,FALSE,-37.96059717,145.170183
2648,https://toiletmap.gov.au/toilet/2648,Burden Park,Heatherton Road,Springvale South,Victoria,3172,FALSE,FALSE,-37.96298879,145.1536889
2650,https://toiletmap.gov.au/toilet/2650,Douglas Street,Douglas Street,Noble Park,Victoria,3174,FALSE,TRUE,-37.96663336,145.1756053
2651,https://toiletmap.gov.au/toilet/2651,Keysborough Reserve,Cheltenham Road,Keysborough,Victoria,3173,FALSE,FALSE,-37.99431968,145.1669423
2652,https://toiletmap.gov.au/toilet/2652,Noble Park Reserve,Aenone Avenue,Noble Park,Victoria,3174,FALSE,FALSE,-37.97773969,145.1684638
2653,https://toiletmap.gov.au/toilet/2653,Dunblane Road,Dunblane Road,Noble Park,Victoria,3174,FALSE,FALSE,-37.96145827,145.1812729
2655,https://toiletmap.gov.au/toilet/2655,Wachter Reserve,Bloomfield Road,Keysborough,Victoria,3173,FALSE,FALSE,-37.99072505,145.1742126
2656,https://toiletmap.gov.au/toilet/2656,Greaves Reserve,Greaves Reserve,Dandenong,Victoria,3175,FALSE,FALSE,-37.98419312,145.1979527
2657,https://toiletmap.gov.au/toilet/2657,Thomas Street,Thomas Street,Dandenong,Victoria,3175,FALSE,FALSE,-37.98684977,145.2127432
2658,https://toiletmap.gov.au/toilet/2658,Hemmings Street,Hemmings Street,Dandenong,Victoria,3175,FALSE,TRUE,-37.98296794,145.2026376
2659,https://toiletmap.gov.au/toilet/2659,Menzies Reserve,Menzies Avenue,Dandenong North,Victoria,3175,FALSE,FALSE,-37.96601964,145.2095024
2660,https://toiletmap.gov.au/toilet/2660,Riverside Park,Dandenong Road,Dandenong,Victoria,3175,FALSE,TRUE,-37.99351033,145.217069
2661,https://toiletmap.gov.au/toilet/2661,Hemmings Park,61A Princes Highway DANDENONG  VIC  3175,Dandenong,Victoria,3175,FALSE,TRUE,-37.98013241,145.2083609
2662,https://toiletmap.gov.au/toilet/2662,Palm Plaza,Palm Plaza,Dandenong,Victoria,3175,FALSE,FALSE,-37.98573181,145.2150804
2664,https://toiletmap.gov.au/toilet/2664,Tirhatuan Park,Kriegel Way,Dandenong North,Victoria,3175,FALSE,FALSE,-37.9462409,145.2228349
2935,https://toiletmap.gov.au/toilet/2935,Buxton Recreation Reserve,Mareeba Avenue,Buxton,Victoria,3711,TRUE,FALSE,-37.42615359,145.7061804
2936,https://toiletmap.gov.au/toilet/2936,Marysville Gallipoli Park,Falls Road,Marysville,Victoria,3779,TRUE,FALSE,-37.51235679,145.7519912
2937,https://toiletmap.gov.au/toilet/2937,Marysville Heart,Murchison Street,Marysville,Victoria,3779,TRUE,TRUE,-37.51020128,145.74836
2939,https://toiletmap.gov.au/toilet/2939,Marysville Settlers Reserve next to Caravan Park,Buxton-Marysville Road,Marysville,Victoria,3779,TRUE,FALSE,-37.50850251,145.7488224
2940,https://toiletmap.gov.au/toilet/2940,Yea Railway Reserve,Melba Highway,Yea,Victoria,3717,TRUE,FALSE,-37.21365176,145.4284868
2941,https://toiletmap.gov.au/toilet/2941,High Street Yea,High Street,Yea,Victoria,3717,TRUE,TRUE,-37.21211296,145.4237265
2942,https://toiletmap.gov.au/toilet/2942,Shire Hall,Perkins Street,Alexandra,Victoria,3714,FALSE,TRUE,-37.19106706,145.7098775
2943,https://toiletmap.gov.au/toilet/2943,Alexandra Rotary Park,Grant Street (Maroondah Hwy),Alexandra,Victoria,3714,TRUE,FALSE,-37.19002,145.7078025
2944,https://toiletmap.gov.au/toilet/2944,Leckie Park Alexandra,Vickery Street,Alexandra,Victoria,3714,TRUE,FALSE,-37.18836187,145.7109337
2945,https://toiletmap.gov.au/toilet/2945,Moore Park - Eildon,Main Street,Eildon,Victoria,3713,TRUE,FALSE,-37.2324637,145.9092836
2946,https://toiletmap.gov.au/toilet/2946,Coller Reserve,Eildon Road,Eildon,Victoria,3713,TRUE,FALSE,-37.23320634,145.9125383
2947,https://toiletmap.gov.au/toilet/2947,Lake Eildon Wall,Embankment Road,Eildon,Victoria,3713,TRUE,FALSE,-37.22495001,145.9312327
2948,https://toiletmap.gov.au/toilet/2948,Kinglake West,Whittlesea - Yea Road,Kinglake West,Victoria,3757,TRUE,TRUE,-37.47564195,145.2364106
2949,https://toiletmap.gov.au/toilet/2949,Kinglake,Aitkin Crescent,Kinglake,Victoria,3763,TRUE,FALSE,-37.53022409,145.3407554
2950,https://toiletmap.gov.au/toilet/2950,Toolangi Recreation Reserve,Cherry Lane,Toolangi,Victoria,3777,TRUE,FALSE,-37.53570622,145.474563
2951,https://toiletmap.gov.au/toilet/2951,Yarck Recreation Reserve,Goodear Lane,Yarck,Victoria,3719,TRUE,FALSE,-37.09970155,145.6162891
2952,https://toiletmap.gov.au/toilet/2952,Taggerty Hall,Taggerty - Thornton Road,Taggerty,Victoria,3714,TRUE,TRUE,-37.32095605,145.7123613
2953,https://toiletmap.gov.au/toilet/2953,Tumbling Waters Reserve,Taggerty - Thornton Road,Thornton,Victoria,3712,TRUE,FALSE,-37.27752032,145.7991087
2954,https://toiletmap.gov.au/toilet/2954,Thornton Recreation Reserve,Taggerty - Thornton Road,Thornton,Victoria,3712,TRUE,FALSE,-37.25757091,145.7978057
3090,https://toiletmap.gov.au/toilet/3090,Beaconsfield Upper Charing Cross Reserve Asset ID 238,Beaconsfield Emerald Road,Beaconsfield Upper,Victoria,3808,FALSE,FALSE,-38.00481695,145.409999
3091,https://toiletmap.gov.au/toilet/3091,Pakenham Upper RJ Chambers Reserve Asset ID 499,Bourkes Creek Road,Pakenham Upper,Victoria,3810,FALSE,FALSE,-37.98780655,145.4906066
3092,https://toiletmap.gov.au/toilet/3092,Bunyip High Street Asset ID 251,High Street,Bunyip,Victoria,3815,FALSE,FALSE,-38.09740862,145.7189219
3093,https://toiletmap.gov.au/toilet/3093,Cockatoo Alma Treloar Reserve Asset ID 271,2-10 McBride Street,Cockatoo,Victoria,3781,FALSE,FALSE,-37.93584048,145.4903578
3094,https://toiletmap.gov.au/toilet/3094,Emerald Worrell Reserve Asset ID 375,Belgrave Gembrook Road,Emerald,Victoria,3782,FALSE,FALSE,-37.92876235,145.4452474
3095,https://toiletmap.gov.au/toilet/3095,Emerald Crn Belgrave-Gembrook Road & Ferres Road Asset ID 376,Belgrave-Gembrook Road & Ferres Road,Emerald,Victoria,3782,FALSE,FALSE,-37.93195586,145.4408871
3097,https://toiletmap.gov.au/toilet/3097,"Gembrook Park, Redwood Rd Asset ID 66097",Gembrook Road,Gembrook,Victoria,3783,FALSE,FALSE,-37.95589008,145.5504845
3098,https://toiletmap.gov.au/toilet/3098,Koo Wee Rup Rossiter Road Asset ID 407,310 Rossiter Road,Koo Wee Rup,Victoria,3981,FALSE,FALSE,-38.1992442,145.491742
3099,https://toiletmap.gov.au/toilet/3099,Koo Wee Rup Swimming Pool Asset ID 358,Rossiter Road,Koo Wee Rup,Victoria,3981,FALSE,FALSE,-38.20034598,145.486994
3100,https://toiletmap.gov.au/toilet/3100,Garfield North Mount Cannibal Reserve Asset ID 462,Garfield North Road,Garfield North,Victoria,3814,FALSE,FALSE,-38.05191739,145.676993
3101,https://toiletmap.gov.au/toilet/3101,Nar Nar Goon Main Street Asset ID 469,9-11 Main Street,Nar Nar Goon,Victoria,3812,FALSE,FALSE,-38.08256729,145.5695858
3103,https://toiletmap.gov.au/toilet/3103,Pakenham PB Ronald Park Asset ID 493,John Street,Pakenham,Victoria,3810,FALSE,FALSE,-38.07445797,145.4843343
3104,https://toiletmap.gov.au/toilet/3104,Lang Lang Kester Kitchin Park Asset ID 421,Westernport Road,Lang Lang,Victoria,3984,FALSE,FALSE,-38.26539949,145.5627205
3105,https://toiletmap.gov.au/toilet/3105,Bayles Public Hall Toilets Asset ID 216,Koo Wee Rup - Longwarry Road,Bayles,Victoria,3981,FALSE,FALSE,-38.17797346,145.57032
3109,https://toiletmap.gov.au/toilet/3109,Guide Park,South Dudley Road,Wonthaggi,Victoria,3995,FALSE,FALSE,-38.60662003,145.5822413
3110,https://toiletmap.gov.au/toilet/3110,Watt Street,Watt Street,Wonthaggi,Victoria,3995,FALSE,FALSE,-38.60756887,145.5900162
3111,https://toiletmap.gov.au/toilet/3111,Apex Park,Murray Street,Wonthaggi,Victoria,3995,FALSE,FALSE,-38.60448995,145.5909055
3112,https://toiletmap.gov.au/toilet/3112,McMahons Reserve,Cameron Street,Wonthaggi,Victoria,3995,FALSE,FALSE,-38.61373197,145.5852017
3114,https://toiletmap.gov.au/toilet/3114,South Dudley Reserve,Carl Street,Dudley South,Victoria,3995,FALSE,FALSE,-38.59790695,145.5750226
3115,https://toiletmap.gov.au/toilet/3115,Cape Paterson (Browns Bay),Surf Beach Road,Cape Paterson,Victoria,3995,FALSE,FALSE,-38.67338022,145.619342
3116,https://toiletmap.gov.au/toilet/3116,Allan Birt Park Reserve,Surf Beach Road,Cape Paterson,Victoria,3995,FALSE,FALSE,-38.67413453,145.6169176
3117,https://toiletmap.gov.au/toilet/3117,Surf Beach,Surf Beach Road,Cape Paterson,Victoria,3995,FALSE,TRUE,-38.67618192,145.6101832
3118,https://toiletmap.gov.au/toilet/3118,Beach Road,Beach Road,Rhyll,Victoria,3923,FALSE,FALSE,-38.46536992,145.3095404
3119,https://toiletmap.gov.au/toilet/3119,Lock Road,Lock Road,Rhyll,Victoria,3923,FALSE,FALSE,-38.46299941,145.303641
3121,https://toiletmap.gov.au/toilet/3121,Beach Crescent,Beach Crescent,Newhaven,Victoria,3925,FALSE,FALSE,-38.51300676,145.3617715
3122,https://toiletmap.gov.au/toilet/3122,Newhaven Jetty,Beach Crescent,Newhaven,Victoria,3925,FALSE,FALSE,-38.51608311,145.3620935
3123,https://toiletmap.gov.au/toilet/3123,Graydens Reserve,Anderson Street,Newhaven,Victoria,3925,FALSE,FALSE,-38.5147596,145.358731
3124,https://toiletmap.gov.au/toilet/3124,The Esplanade,The Esplanade,Cape Woolamai,Victoria,3925,FALSE,FALSE,-38.53385246,145.3397792
3125,https://toiletmap.gov.au/toilet/3125,Smiths Beach Road,Smiths Beach Road,Smiths Beach,Victoria,3922,FALSE,FALSE,-38.5042018,145.2572754
3126,https://toiletmap.gov.au/toilet/3126,Beachcomber Avenue,Beachcomber Avenue,Smiths Beach,Victoria,3922,FALSE,FALSE,-38.50361469,145.2508164
3127,https://toiletmap.gov.au/toilet/3127,Harris Road,Harris Road,Cowes,Victoria,3922,FALSE,FALSE,-38.46283845,145.178901
3129,https://toiletmap.gov.au/toilet/3129,Penguin Avenue,Red Rocks Road,Cowes,Victoria,3922,FALSE,FALSE,-38.45195918,145.2009094
3130,https://toiletmap.gov.au/toilet/3130,Anderson Road Boat Ramp,Anderson Road,Cowes,Victoria,3922,FALSE,FALSE,-38.45032253,145.2207349
3131,https://toiletmap.gov.au/toilet/3131,The Esplanade 1,The Esplanade,Cowes,Victoria,3922,FALSE,TRUE,-38.44780471,145.242008
3132,https://toiletmap.gov.au/toilet/3132,Phillip Island Road,Phillip Island Road,Cowes,Victoria,3922,FALSE,FALSE,-38.45132935,145.2393017
3133,https://toiletmap.gov.au/toilet/3133,The Esplanade/Thompson Avenue,The Esplanade,Cowes,Victoria,3922,FALSE,TRUE,-38.44755298,145.2393645
3134,https://toiletmap.gov.au/toilet/3134,Chapel Street,Chapel Street,Cowes,Victoria,3922,FALSE,FALSE,-38.45029,145.24565
3135,https://toiletmap.gov.au/toilet/3135,Bass Valley Community Centre & Park,Hade Avenue,Bass,Victoria,3991,FALSE,FALSE,-38.48654642,145.4675713
3136,https://toiletmap.gov.au/toilet/3136,Ketch Close,Off Cutty Sark Road,Coronet Bay,Victoria,3984,FALSE,FALSE,-38.43807871,145.4343736
3137,https://toiletmap.gov.au/toilet/3137,Pier Road,Pier Road,Grantville,Victoria,3984,FALSE,FALSE,-38.40723905,145.5266837
3138,https://toiletmap.gov.au/toilet/3138,Hughes Reserve,Balcombe Street,Corinella,Victoria,3984,FALSE,FALSE,-38.41402655,145.4324117
3140,https://toiletmap.gov.au/toilet/3140,Marine Parade,Marine Parade,San Remo,Victoria,3925,FALSE,FALSE,-38.5209894,145.3669769
3141,https://toiletmap.gov.au/toilet/3141,Davis Point Road,Davis Point Road,San Remo,Victoria,3925,FALSE,TRUE,-38.52627628,145.369653
3142,https://toiletmap.gov.au/toilet/3142,Surf Beach (Surf Lifesaving Club),Surf Parade,Inverloch,Victoria,3996,FALSE,FALSE,-38.64700877,145.7018955
3143,https://toiletmap.gov.au/toilet/3143,Ramsay Boulevard (Opp Normal Road),Ramsay Boulevard,Inverloch,Victoria,3996,FALSE,TRUE,-38.64214597,145.7144598
3144,https://toiletmap.gov.au/toilet/3144,Ramsay Boulevard (Rotary Centenary Park),Ramsay Boulevard,Inverloch,Victoria,3996,FALSE,FALSE,-38.64002464,145.7181148
3145,https://toiletmap.gov.au/toilet/3145,Ramsay Boulevard (Environment Centre),Ramsay Boulevard,Inverloch,Victoria,3996,FALSE,FALSE,-38.63493341,145.7289168
3146,https://toiletmap.gov.au/toilet/3146,Inverloch Boat Ramp,Grand View Grove,Inverloch,Victoria,3996,FALSE,FALSE,-38.63503125,145.7341383
3147,https://toiletmap.gov.au/toilet/3147,Reilly Street,Reilly Street,Inverloch,Victoria,3996,FALSE,TRUE,-38.63323638,145.728003
3148,https://toiletmap.gov.au/toilet/3148,Mahers Landing Road,Mahers Landing Road,Inverloch,Victoria,3996,FALSE,FALSE,-38.63823068,145.7922768
3149,https://toiletmap.gov.au/toilet/3149,Phillip Island Information Centre,Phillip Island Road,Newhaven,Victoria,3925,FALSE,TRUE,-38.51486703,145.349216
3150,https://toiletmap.gov.au/toilet/3150,Palmer Street (Boat Ramp),Palmer Street,Corinella,Victoria,3984,FALSE,FALSE,-38.40873975,145.4220011
3264,https://toiletmap.gov.au/toilet/3264,Moonee Ponds Junction,Mt Alexander Road,Moonee Ponds,Victoria,3039,FALSE,FALSE,-37.76662687,144.9248538
3266,https://toiletmap.gov.au/toilet/3266,Ascot Vale Library,165 Union Road,Ascot Vale,Victoria,3032,FALSE,FALSE,-37.77259322,144.9150601
3272,https://toiletmap.gov.au/toilet/3272,Queens Park,Mt Alexander Road,Moonee Ponds,Victoria,3039,FALSE,FALSE,-37.76188933,144.9224805
3274,https://toiletmap.gov.au/toilet/3274,Woodlands Park,Woodlands Street,Strathmore,Victoria,3041,FALSE,FALSE,-37.74349694,144.9120628
3275,https://toiletmap.gov.au/toilet/3275,Riverside Park,The Boulevard,Aberfeldie,Victoria,3040,FALSE,FALSE,-37.76477611,144.8935033
3278,https://toiletmap.gov.au/toilet/3278,Buckley Park,Cooper Street,Essendon North,Victoria,3041,FALSE,FALSE,-37.74399074,144.8973095
3279,https://toiletmap.gov.au/toilet/3279,Fairbairn Park - South,Woods Street,Ascot Vale,Victoria,3032,FALSE,FALSE,-37.77307149,144.8997816
3280,https://toiletmap.gov.au/toilet/3280,Fairbairn Park - North,Raleigh Road,Ascot Vale,Victoria,3032,FALSE,FALSE,-37.77016728,144.898248
3284,https://toiletmap.gov.au/toilet/3284,Montgomery Park,Lawson Street,Essendon,Victoria,3040,FALSE,FALSE,-37.7557832,144.9313921
3291,https://toiletmap.gov.au/toilet/3291,FJ Davies Reserve,Wyong Street,Keilor East,Victoria,3033,FALSE,FALSE,-37.73280465,144.8665439
3293,https://toiletmap.gov.au/toilet/3293,Niddrie Comfort Station,Ross Street,Niddrie,Victoria,3042,FALSE,FALSE,-37.73521657,144.8895038
3295,https://toiletmap.gov.au/toilet/3295,Canning Street Reserve,Canning Street,Avondale Heights,Victoria,3034,TRUE,FALSE,-37.76829145,144.8714019
3296,https://toiletmap.gov.au/toilet/3296,Canning Street Shopping Centre,Canning Street,Avondale Heights,Victoria,3034,FALSE,FALSE,-37.77043567,144.8651037
3297,https://toiletmap.gov.au/toilet/3297,Etzel Street,Etzel Street,Airport West,Victoria,3042,FALSE,FALSE,-37.72177109,144.8761475
3298,https://toiletmap.gov.au/toilet/3298,Aberfeldie Athletics Track,Park Court,Aberfeldie,Victoria,3040,FALSE,FALSE,-37.7617693,144.9017767
3301,https://toiletmap.gov.au/toilet/3301,Rosehill Park,Rachelle Road,Keilor East,Victoria,3033,FALSE,FALSE,-37.74894937,144.8731437
3303,https://toiletmap.gov.au/toilet/3303,Clifton Park,Batman Street,Aberfeldie,Victoria,3040,FALSE,FALSE,-37.75623035,144.8915921
3353,https://toiletmap.gov.au/toilet/3353,Footscray Park 2,Ballarat Road,Footscray,Victoria,3011,FALSE,FALSE,-37.7943314,144.9068951
3355,https://toiletmap.gov.au/toilet/3355,Maribyrnong Park,Burton Crescent,Maribyrnong,Victoria,3032,TRUE,FALSE,-37.77063237,144.8974819
3360,https://toiletmap.gov.au/toilet/3360,Skinner Reserve,Churchhill Avenue,Braybrook,Victoria,3019,TRUE,FALSE,-37.78629895,144.8547278
3361,https://toiletmap.gov.au/toilet/3361,Birmingham Street,56 anderson street,Yarraville,Victoria,3013,TRUE,FALSE,-37.81625773,144.8895178
3362,https://toiletmap.gov.au/toilet/3362,Yarraville Gardens Somerville Road,Somerville Road,Yarraville,Victoria,3013,TRUE,FALSE,-37.81430661,144.8983886
3363,https://toiletmap.gov.au/toilet/3363,Leeds Street,47-61 byron street,Footscray,Victoria,3011,TRUE,FALSE,-37.7994405,144.9009423
3469,https://toiletmap.gov.au/toilet/3469,Kelly Park,Watton Street,Werribee,Victoria,3030,TRUE,TRUE,-37.9009126,144.6640952
3470,https://toiletmap.gov.au/toilet/3470,Soldiers Reserve,College Road,Werribee,Victoria,3030,TRUE,FALSE,-37.90602622,144.6661423
3472,https://toiletmap.gov.au/toilet/3472,Beach Road,Beach Road,Werribee South,Victoria,3030,TRUE,FALSE,-37.97191459,144.6877229
3473,https://toiletmap.gov.au/toilet/3473,Beach Road,"Beach Road, Price Reserve",Werribee South,Victoria,3030,FALSE,FALSE,-37.97392367,144.6933509
3475,https://toiletmap.gov.au/toilet/3475,Chirnside Park BBQ Area,Watton Street,Werribee,Victoria,3030,FALSE,TRUE,-37.90466996,144.6548673
3476,https://toiletmap.gov.au/toilet/3476,Galvin Park Reserve,Parklands Grove,Werribee,Victoria,3030,TRUE,FALSE,-37.8873444,144.6497529
3477,https://toiletmap.gov.au/toilet/3477,Presidents Park,Bolton Road,Wyndham Vale,Victoria,3024,TRUE,TRUE,-37.88608749,144.6320946
3478,https://toiletmap.gov.au/toilet/3478,Wyndham Vale Reserve,Honour Avenue,Werribee,Victoria,3030,TRUE,TRUE,-37.89830318,144.6229969
3479,https://toiletmap.gov.au/toilet/3479,Little River Reserve,Off You Yangs Road,Little River,Victoria,3211,FALSE,FALSE,-37.96240711,144.4967671
3480,https://toiletmap.gov.au/toilet/3480,Old Geelong Road,Old Geelong Road,Hoppers Crossing,Victoria,3029,TRUE,FALSE,-37.88285533,144.700034
3483,https://toiletmap.gov.au/toilet/3483,Warringa Reserve,Powell Drive,Hoppers Crossing,Victoria,3029,TRUE,FALSE,-37.88502194,144.6897526
3486,https://toiletmap.gov.au/toilet/3486,Comben Drive,Comben Drive,Werribee,Victoria,3030,TRUE,TRUE,-37.90201497,144.6597451
3487,https://toiletmap.gov.au/toilet/3487,Brock Street,Brock Street,Euroa,Victoria,3666,TRUE,FALSE,-36.7512212,145.5701388
3488,https://toiletmap.gov.au/toilet/3488,Seven Creeks Park,Kirkland Avenue,Euroa,Victoria,3666,TRUE,FALSE,-36.7524109,145.5738983
3490,https://toiletmap.gov.au/toilet/3490,Buckley Park,Off Blayney Lane,Nagambie,Victoria,3608,FALSE,FALSE,-36.78598503,145.1485151
3491,https://toiletmap.gov.au/toilet/3491,Nagambie Median Strip,Main Street,Nagambie,Victoria,3608,TRUE,TRUE,-36.78476221,145.153869
3492,https://toiletmap.gov.au/toilet/3492,River Street,River Street,Nagambie,Victoria,3608,FALSE,FALSE,-36.77808516,145.1494192
3493,https://toiletmap.gov.au/toilet/3493,Nagambie Rowing Regatta Headquarters,"Regatta Centre, Loddings Lane",Nagambie,Victoria,3608,FALSE,FALSE,-36.78291564,145.13638
3495,https://toiletmap.gov.au/toilet/3495,Jubilee Park,Queen Street,Avenel,Victoria,3664,TRUE,FALSE,-36.89710876,145.2303266
3498,https://toiletmap.gov.au/toilet/3498,Lions Park,Cowslip Street,Violet Town,Victoria,3669,FALSE,FALSE,-36.63657397,145.7167146
3500,https://toiletmap.gov.au/toilet/3500,Violet Town Swimming Pool Complex,Tulip Street,Violet Town,Victoria,3669,TRUE,FALSE,-36.63456637,145.718777
3501,https://toiletmap.gov.au/toilet/3501,Violet Town Recreation Reserve,Tulip Street,Violet Town,Victoria,3669,TRUE,FALSE,-36.63539423,145.7205379
3507,https://toiletmap.gov.au/toilet/3507,Berwick Township,Princes Highway,Berwick,Victoria,3806,FALSE,TRUE,-38.03124995,145.3461336
3538,https://toiletmap.gov.au/toilet/3538,Buchanan Park,Clyde Road,Berwick,Victoria,3806,FALSE,FALSE,-38.03862842,145.3420817
3539,https://toiletmap.gov.au/toilet/3539,Arch Brown Reserve,Buchanan Road,Berwick,Victoria,3806,FALSE,FALSE,-38.02707682,145.3538545
3540,https://toiletmap.gov.au/toilet/3540,Akoonah Park,Cardinia Street,Berwick,Victoria,3806,FALSE,FALSE,-38.03937277,145.3650961
3541,https://toiletmap.gov.au/toilet/3541,Berwick Youth Club,Princes Highway,Berwick,Victoria,3806,FALSE,FALSE,-38.03197568,145.3476657
3542,https://toiletmap.gov.au/toilet/3542,Parkhill Drive,Parkhill Drive,Narre Warren,Victoria,3805,FALSE,FALSE,-38.02050427,145.3221581
3543,https://toiletmap.gov.au/toilet/3543,Averbury Drive,Avebury Drive,Narre Warren,Victoria,3805,FALSE,FALSE,-38.02487247,145.3252458
3544,https://toiletmap.gov.au/toilet/3544,Cranbourne,South Gippsland Highway,Cranbourne,Victoria,3977,FALSE,FALSE,-38.11428856,145.2842696
3545,https://toiletmap.gov.au/toilet/3545,Cranbourne Public Hall,South Gippsland Highway,Cranbourne,Victoria,3977,FALSE,FALSE,-38.10596265,145.2826971
3546,https://toiletmap.gov.au/toilet/3546,Autumn Place Shopping Centre,Power Road,Doveton,Victoria,3177,TRUE,FALSE,-37.99490386,145.2384058
3547,https://toiletmap.gov.au/toilet/3547,Charles Green Reserve,James Cook Drive,Endeavour Hills,Victoria,3802,FALSE,FALSE,-37.98489326,145.2514151
3548,https://toiletmap.gov.au/toilet/3548,LS Reid Oval,Oak Avenue,Doveton,Victoria,3177,FALSE,FALSE,-37.99687947,145.2411677
3549,https://toiletmap.gov.au/toilet/3549,Robinson Reserve,Frawley Road,Doveton,Victoria,3177,FALSE,FALSE,-37.99564244,145.2434333
3550,https://toiletmap.gov.au/toilet/3550,Spring Square Shopping Centre,Princes Highway,Hallam,Victoria,3803,FALSE,FALSE,-38.00488068,145.26649
3551,https://toiletmap.gov.au/toilet/3551,Narre Warren Township,Webb Street,Narre Warren,Victoria,3805,FALSE,FALSE,-38.02574231,145.3038395
3552,https://toiletmap.gov.au/toilet/3552,Bunjil Place,Patrick Northeast Drive,Narre Warren,Victoria,3805,FALSE,FALSE,-38.01987285,145.2997119
3553,https://toiletmap.gov.au/toilet/3553,South Gippsland Highway,South Gippsland Highway,Tooradin,Victoria,3980,FALSE,FALSE,-38.213021,145.380836
3554,https://toiletmap.gov.au/toilet/3554,Tooradin Foreshore,Foreshore Road,Tooradin,Victoria,3980,FALSE,FALSE,-38.21566999,145.3776662
3555,https://toiletmap.gov.au/toilet/3555,Blind Bight Foreshore,Anchorage Drive,Blind Bight,Victoria,3980,FALSE,FALSE,-38.21575003,145.340862
3556,https://toiletmap.gov.au/toilet/3556,Warneet Foreshore 1,Rutherford Parade,Warneet,Victoria,3980,FALSE,FALSE,-38.22635858,145.3062983
3557,https://toiletmap.gov.au/toilet/3557,Warneet Foreshore 2,Rutherford Parade,Warneet,Victoria,3980,FALSE,FALSE,-38.22134782,145.3101912
3705,https://toiletmap.gov.au/toilet/3705,Keith Borley Leisure Area,Off Fawckner Drive,Benalla,Victoria,3672,TRUE,TRUE,-36.55320026,145.9838582
3706,https://toiletmap.gov.au/toilet/3706,Denny Street Car Park,Denny Street,Benalla,Victoria,3672,TRUE,TRUE,-36.55064358,145.9837815
3707,https://toiletmap.gov.au/toilet/3707,Botanical Gardens,Off Midland Highway,Benalla,Victoria,3672,TRUE,FALSE,-36.55309804,145.979333
3708,https://toiletmap.gov.au/toilet/3708,Tennis Club - Botanical Gardens,Deas Street,Benalla,Victoria,3672,FALSE,FALSE,-36.55074593,145.9765718
3709,https://toiletmap.gov.au/toilet/3709,Botanical Gardens - Old Caravan Park,Off Midland Highway,Benalla,Victoria,3672,TRUE,TRUE,-36.55348157,145.9773388
3710,https://toiletmap.gov.au/toilet/3710,Highett Street,Highett Street,Mansfield,Victoria,3722,FALSE,TRUE,-37.0519649,146.0882304
3711,https://toiletmap.gov.au/toilet/3711,Cricket Ground,Victoria Street,Mansfield,Victoria,3722,FALSE,FALSE,-37.05641356,146.0842677
3712,https://toiletmap.gov.au/toilet/3712,Cemetery,Highett Street,Mansfield,Victoria,3722,FALSE,FALSE,-37.06393018,146.0854439
3713,https://toiletmap.gov.au/toilet/3713,Botanic Park,High Street,Mansfield,Victoria,3722,FALSE,FALSE,-37.05211824,146.0939572
3714,https://toiletmap.gov.au/toilet/3714,Perkins Street,22 Brown Street,Jamieson,Victoria,3723,FALSE,FALSE,-37.3030866,146.1379732
3715,https://toiletmap.gov.au/toilet/3715,Grey Street,7 Grey Street,Jamieson,Victoria,3723,FALSE,FALSE,-37.30388909,146.1354
3716,https://toiletmap.gov.au/toilet/3716,Maroondah Highway,Maroondah Highway,Bonnie Doon,Victoria,3720,FALSE,FALSE,-37.0263356,145.8545806
3720,https://toiletmap.gov.au/toilet/3720,Euroa-Mansfield Road,Euroa-Mansfield Road,Merton,Victoria,3715,FALSE,FALSE,-36.97257049,145.7089174
3811,https://toiletmap.gov.au/toilet/3811,Carrum SLSC Foreshore,Old Post Office Lane,Carrum,Victoria,3197,TRUE,TRUE,-38.07635313,145.121311
3812,https://toiletmap.gov.au/toilet/3812,Harding Avenue Bonbeach Foreshore,Harding Avenue,Bonbeach,Victoria,3196,FALSE,FALSE,-38.06394122,145.1175639
3813,https://toiletmap.gov.au/toilet/3813,Victory Park Chelsea Foreshore,Camp Street,Chelsea,Victoria,3196,FALSE,TRUE,-38.05263875,145.1138566
3815,https://toiletmap.gov.au/toilet/3815,Wallum Road,22 Bristol Avenue,Edithvale,Victoria,3196,FALSE,TRUE,-38.04455357,145.1093676
3816,https://toiletmap.gov.au/toilet/3816,The Esplanade Edithvale Foreshore,The Esplanade Lane,Edithvale,Victoria,3196,FALSE,FALSE,-38.03877777,145.1067134
3817,https://toiletmap.gov.au/toilet/3817,Groves Street  Aspendale LSC,Groves Street,Aspendale,Victoria,3195,FALSE,FALSE,-38.02786363,145.1007872
3818,https://toiletmap.gov.au/toilet/3818,Pier Road Mordialloc Foreshore,Pier Road,Mordialloc,Victoria,3195,FALSE,FALSE,-38.00958209,145.085812
3820,https://toiletmap.gov.au/toilet/3820,Parkers Road Parkdale Foreshore,Parkers Road,Parkdale,Victoria,3195,FALSE,FALSE,-38.00011804,145.0757007
3821,https://toiletmap.gov.au/toilet/3821,Birdwood Street Parkdale Foreshore,Beach Road Opposite Antibes Street Parkdale,Parkdale,Victoria,3195,TRUE,TRUE,-37.99618989,145.0711672
3822,https://toiletmap.gov.au/toilet/3822,Dixon Street  Mentone Foreshore,Dixon Street,Mentone,Victoria,3194,TRUE,TRUE,-37.99325384,145.0670457
3823,https://toiletmap.gov.au/toilet/3823,Mentone Life Saving Club,Beach Road Mentone Opposite Kitchener Street,Mentone,Victoria,3194,TRUE,TRUE,-37.98865347,145.0585537
3824,https://toiletmap.gov.au/toilet/3824,Mundy Street Mentone Foreshore,Beach Road,Mentone,Victoria,3194,TRUE,TRUE,-37.98672094,145.0547847
3825,https://toiletmap.gov.au/toilet/3825,Peter Scullin Reserve Mordialloc Foreshore,Beach Road,Mordialloc,Victoria,3195,TRUE,TRUE,-38.00838465,145.0844529
3826,https://toiletmap.gov.au/toilet/3826,Bicentennial Park,Scotch Parade,Chelsea,Victoria,3196,FALSE,FALSE,-38.05000061,145.1270881
3827,https://toiletmap.gov.au/toilet/3827,Bald Hill Park,Inverness Street,Clarinda,Victoria,3169,TRUE,FALSE,-37.93176204,145.1069465
3828,https://toiletmap.gov.au/toilet/3828,The Grange - Westall,Osborne Avenue,Clayton South,Victoria,3169,TRUE,TRUE,-37.94595273,145.132471
3829,https://toiletmap.gov.au/toilet/3829,Namatjira Park,Springs Road,Clarinda,Victoria,3169,TRUE,FALSE,-37.93358035,145.1105526
3830,https://toiletmap.gov.au/toilet/3830,Le Page Park,Argus Street,Cheltenham,Victoria,3192,TRUE,FALSE,-37.95901089,145.0709545
